Time,header.seq,header.stamp.secs,header.stamp.nsecs,header.frame_id,name,position_0,position_1,position_2,position_3,position_4,position_5,position_6,position_7,position_8,position_9,position_10,position_11,velocity_0,velocity_1,velocity_2,velocity_3,velocity_4,velocity_5,velocity_6,velocity_7,velocity_8,velocity_9,velocity_10,velocity_11,effort_0,effort_1,effort_2,effort_3,effort_4,effort_5,effort_6,effort_7,effort_8,effort_9,effort_10,effort_11
1636570667.2554684,10248,1636570667,266220887,,"['front_left_hip_x', 'front_left_hip_y', 'front_left_knee', 'front_right_hip_x', 'front_right_hip_y', 'front_right_knee', 'rear_left_hip_x', 'rear_left_hip_y', 'rear_left_knee', 'rear_right_hip_x', 'rear_right_hip_y', 'rear_right_knee']",-0.08537817001342773,1.0492582321166992,-1.798833966255188,0.00925987958908081,1.010582447052002,-1.8066977262496948,-0.044467926025390625,1.0548878908157349,-1.8228882551193237,0.061867475509643555,1.0010745525360107,-1.8142262697219849,0.010901915840804577,-0.013004520907998085,0.532907247543335,0.4702049493789673,1.350051760673523,-2.3188328742980957,-0.35984328389167786,1.4718501567840576,-2.4077296257019043,-0.0165993794798851,-0.0705251395702362,0.9408144354820251,-11.90257740020752,-3.072324752807617,42.91361618041992,-0.24409043788909912,12.497580528259277,-1.4930499792099,-0.7642619609832764,9.385884284973145,-0.8444356322288513,12.696130752563477,2.544569969177246,53.915435791015625
1636570667.306705,10249,1636570667,329225815,,"['front_left_hip_x', 'front_left_hip_y', 'front_left_knee', 'front_right_hip_x', 'front_right_hip_y', 'front_right_knee', 'rear_left_hip_x', 'rear_left_hip_y', 'rear_left_knee', 'rear_right_hip_x', 'rear_right_hip_y', 'rear_right_knee']",-0.07929599285125732,1.0601043701171875,-1.8030524253845215,0.05106765031814575,1.2003178596496582,-2.1567649841308594,-0.06027674674987793,1.2110412120819092,-2.1101582050323486,0.06502741575241089,1.0100610256195068,-1.819419503211975,0.1001218855381012,0.06013428047299385,-0.10317160934209824,1.9554362297058105,1.9787883758544922,-5.300544738769531,-0.418608158826828,1.424639344215393,-4.36482048034668,0.16513562202453613,-0.016631286591291428,0.1866714060306549,-15.97581958770752,-0.18158824741840363,40.98528289794922,1.5955805778503418,1.3337548971176147,0.9229243397712708,0.6905069947242737,1.5776230096817017,-0.5843404531478882,10.695502281188965,7.616264820098877,48.48221206665039
1636570667.3668334,10250,1636570667,383221079,,"['front_left_hip_x', 'front_left_hip_y', 'front_left_knee', 'front_right_hip_x', 'front_right_hip_y', 'front_right_knee', 'rear_left_hip_x', 'rear_left_hip_y', 'rear_left_knee', 'rear_right_hip_x', 'rear_right_hip_y', 'rear_right_knee']",-0.08168655633926392,1.0689243078231812,-1.7992814779281616,0.159817636013031,1.2246999740600586,-2.2888309955596924,-0.06701433658599854,1.2526723146438599,-2.2727441787719727,0.06459629535675049,1.0148420333862305,-1.8079625368118286,0.02800896391272545,0.12745730578899384,0.1448567807674408,2.5242533683776855,-1.3701047897338867,0.017154578119516373,0.4246947765350342,-1.471881628036499,-1.615767002105713,-0.000255175051279366,-0.006482662633061409,0.4134262800216675,-17.608226776123047,9.043722152709961,37.4883918762207,2.474306106567383,-4.349082946777344,-0.66522616147995,-0.31861090660095215,-5.169621467590332,-0.8971863389015198,9.59044361114502,12.652027130126953,60.13719940185547
1636570667.440282,10251,1636570667,443230807,,"['front_left_hip_x', 'front_left_hip_y', 'front_left_knee', 'front_right_hip_x', 'front_right_hip_y', 'front_right_knee', 'rear_left_hip_x', 'rear_left_hip_y', 'rear_left_knee', 'rear_right_hip_x', 'rear_right_hip_y', 'rear_right_knee']",-0.08856987953186035,1.0814577341079712,-1.7911161184310913,0.32969218492507935,1.0777831077575684,-2.2583112716674805,-0.02691560983657837,1.0785565376281738,-2.221275806427002,0.06417149305343628,1.0242185592651367,-1.7883085012435913,-0.11151953786611557,0.3522527813911438,0.1290690153837204,2.4356346130371094,-3.550086498260498,1.6975616216659546,1.1118665933609009,-3.4596107006073,2.2944483757019043,-0.008382859639823437,0.3736456036567688,0.26926490664482117,-18.427021026611328,14.929553985595703,35.581451416015625,-0.8453237414360046,-1.1246676445007324,1.104835033416748,2.04794979095459,-0.8328428268432617,-0.7515612840652466,10.543622016906738,18.734981536865234,73.08991241455078
1636570667.5100138,10252,1636570667,518235991,,"['front_left_hip_x', 'front_left_hip_y', 'front_left_knee', 'front_right_hip_x', 'front_right_hip_y', 'front_right_knee', 'rear_left_hip_x', 'rear_left_hip_y', 'rear_left_knee', 'rear_right_hip_x', 'rear_right_hip_y', 'rear_right_knee']",-0.10923904180526733,1.1230969429016113,-1.777901530265808,0.3852996826171875,0.9259538054466248,-1.9456827640533447,-0.028864383697509766,0.9426403045654297,-1.9399821758270264,0.05899059772491455,1.0767066478729248,-1.7703320980072021,-0.28018659353256226,0.8848950862884521,0.15576541423797607,-0.779476523399353,0.27584511041641235,3.8837594985961914,-1.0852880477905273,0.8587961792945862,2.904829502105713,-0.0719275027513504,0.9757810831069946,0.3795573115348816,-16.250478744506836,9.492465019226074,27.77796745300293,-4.195785999298096,3.533396005630493,-1.562907099723816,0.5931809544563293,3.4009242057800293,-1.3273091316223145,12.727554321289062,25.988325119018555,86.0339584350586
1636570667.5763772,10253,1636570667,584235863,,"['front_left_hip_x', 'front_left_hip_y', 'front_left_knee', 'front_right_hip_x', 'front_right_hip_y', 'front_right_knee', 'rear_left_hip_x', 'rear_left_hip_y', 'rear_left_knee', 'rear_right_hip_x', 'rear_right_hip_y', 'rear_right_knee']",-0.13563156127929688,1.224846363067627,-1.82107675075531,0.2987275719642639,1.0151500701904297,-1.789728045463562,-0.07013630867004395,1.0415070056915283,-1.8324276208877563,0.08221763372421265,1.1742429733276367,-1.8019864559173584,-0.6675781607627869,4.92452335357666,-5.4917144775390625,0.869033694267273,1.7780046463012695,-0.6346916556358337,1.062920331954956,1.070479393005371,-0.11109323799610138,0.9916560053825378,3.7585206031799316,-1.5288233757019043,6.940054416656494,4.733707427978516,-1.967315912246704,4.894655704498291,-4.726903438568115,33.682655334472656,-0.8052413463592529,-3.5626440048217773,48.77140808105469,-3.2146265506744385,10.737308502197266,-7.123549938201904
1636570667.627502,10254,1636570667,653236055,,"['front_left_hip_x', 'front_left_hip_y', 'front_left_knee', 'front_right_hip_x', 'front_right_hip_y', 'front_right_knee', 'rear_left_hip_x', 'rear_left_hip_y', 'rear_left_knee', 'rear_right_hip_x', 'rear_right_hip_y', 'rear_right_knee']",-0.1833789348602295,1.29621160030365,-2.15582013130188,0.26934659481048584,1.0828735828399658,-1.75251305103302,-0.06468093395233154,1.101138949394226,-1.7982486486434937,0.09150463342666626,1.2216627597808838,-2.090566635131836,-0.16030502319335938,-0.584466814994812,-4.042732238769531,0.19763651490211487,0.9702073931694031,0.46814337372779846,0.630508303642273,0.7642405033111572,0.7012606859207153,0.8976219892501831,-1.6277589797973633,-3.2620739936828613,3.550868272781372,-0.7816509008407593,-2.8399577140808105,-6.451695442199707,-3.4226458072662354,45.579795837402344,-5.779117107391357,0.5372082591056824,35.6064453125,-1.8477050065994263,-1.5569322109222412,-1.490949273109436
1636570667.6894643,10255,1636570667,704230743,,"['front_left_hip_x', 'front_left_hip_y', 'front_left_knee', 'front_right_hip_x', 'front_right_hip_y', 'front_right_knee', 'rear_left_hip_x', 'rear_left_hip_y', 'rear_left_knee', 'rear_right_hip_x', 'rear_right_hip_y', 'rear_right_knee']",-0.19592154026031494,1.1341410875320435,-2.2801525592803955,0.2578010559082031,1.1313440799713135,-1.717854619026184,-0.03312110900878906,1.136098861694336,-1.7617207765579224,0.08742427825927734,1.0458285808563232,-2.1885015964508057,-0.16919326782226562,-5.594820976257324,0.3523763120174408,-0.6853386163711548,0.7160537242889404,1.2212951183319092,0.3767932653427124,0.6378111839294434,0.9935191869735718,-0.11660587787628174,-5.645435810089111,0.49954134225845337,1.4779714345932007,-0.7294715046882629,-0.7291902303695679,-1.1485097408294678,-2.806746244430542,43.927791595458984,2.0274600982666016,-1.3118456602096558,36.326019287109375,-0.6745615601539612,-1.3721336126327515,0.3880627751350403
1636570667.7464917,10256,1636570667,764236119,,"['front_left_hip_x', 'front_left_hip_y', 'front_left_knee', 'front_right_hip_x', 'front_right_hip_y', 'front_right_knee', 'rear_left_hip_x', 'rear_left_hip_y', 'rear_left_knee', 'rear_right_hip_x', 'rear_right_hip_y', 'rear_right_knee']",-0.14311093091964722,0.8350858688354492,-2.12817645072937,0.24278801679611206,1.1750812530517578,-1.6424659490585327,0.004580140113830566,1.1845544576644897,-1.713943600654602,0.08657479286193848,0.723913848400116,-1.9874064922332764,1.8555927276611328,-5.029695510864258,5.1328125,-1.2616536617279053,0.490333616733551,2.5090556144714355,-0.9946771860122681,1.122171401977539,1.5066879987716675,0.10204765200614929,-5.083183765411377,5.473721504211426,4.203830718994141,-3.2340807914733887,-0.028193101286888123,-5.6243577003479,-26.552520751953125,34.76122283935547,-7.817842483520508,-11.963220596313477,22.489418029785156,3.049121379852295,-0.6894054412841797,-0.8445255756378174
1636570667.8015232,10257,1636570667,824230999,,"['front_left_hip_x', 'front_left_hip_y', 'front_left_knee', 'front_right_hip_x', 'front_right_hip_y', 'front_right_knee', 'rear_left_hip_x', 'rear_left_hip_y', 'rear_left_knee', 'rear_right_hip_x', 'rear_right_hip_y', 'rear_right_knee']",0.006021320819854736,0.5481487512588501,-1.7468703985214233,0.21239173412322998,1.224578619003296,-1.5689467191696167,-0.0012407898902893066,1.22764253616333,-1.6392419338226318,0.22595643997192383,0.4788009524345398,-1.6852601766586304,2.4018728733062744,-2.2066545486450195,6.47206449508667,-0.5490356683731079,1.197691798210144,0.7424834966659546,-0.07156340777873993,0.7485009431838989,1.1238163709640503,2.940275192260742,-0.9647566080093384,3.5481772422790527,4.836064338684082,8.589761734008789,-0.3505348861217499,11.220452308654785,-35.94628143310547,25.95697784423828,-23.226099014282227,-9.856637954711914,27.696699142456055,-3.041797399520874,14.5410795211792,-0.10326371341943741
1636570667.8723192,10258,1636570667,878250839,,"['front_left_hip_x', 'front_left_hip_y', 'front_left_knee', 'front_right_hip_x', 'front_right_hip_y', 'front_right_knee', 'rear_left_hip_x', 'rear_left_hip_y', 'rear_left_knee', 'rear_right_hip_x', 'rear_right_hip_y', 'rear_right_knee']",0.024069249629974365,0.6027816534042358,-1.5875121355056763,0.13769084215164185,1.3130161762237549,-1.5255637168884277,-0.0599370002746582,1.2984888553619385,-1.5767003297805786,0.2461456060409546,0.6028563380241394,-1.6404391527175903,-2.688291072845459,2.2239835262298584,0.568300187587738,-1.4190232753753662,4.707341194152832,-3.2649149894714355,-4.0881571769714355,3.3037140369415283,-1.1679096221923828,-1.7875680923461914,2.6717381477355957,-1.9995266199111938,-5.875629901885986,0.5958842039108276,28.700563430786133,-11.960431098937988,24.82074737548828,-2.8376989364624023,0.5931809544563293,8.39697551727295,-10.132124900817871,14.48203182220459,22.913482666015625,74.96176147460938
1636570667.930633,10259,1636570667,944235863,,"['front_left_hip_x', 'front_left_hip_y', 'front_left_knee', 'front_right_hip_x', 'front_right_hip_y', 'front_right_knee', 'rear_left_hip_x', 'rear_left_hip_y', 'rear_left_knee', 'rear_right_hip_x', 'rear_right_hip_y', 'rear_right_knee']",-0.03572726249694824,0.7257691621780396,-1.6295688152313232,0.14530271291732788,1.467250108718872,-1.9135011434555054,-0.11240845918655396,1.4337596893310547,-1.9522860050201416,0.22506189346313477,0.7435681223869324,-1.699721097946167,-0.195854052901268,1.5193911790847778,-0.6866122484207153,1.357715368270874,0.027202904224395752,-7.045217990875244,-1.144697904586792,-0.7591517567634583,-5.69294548034668,0.9194577932357788,1.4414727687835693,-0.41708096861839294,-6.393854141235352,11.407447814941406,37.21521759033203,-5.321171283721924,0.9507585167884827,-2.567681074142456,-1.4557894468307495,-3.8562264442443848,-1.4967716932296753,14.806741714477539,21.506959915161133,60.65732955932617
1636570667.987236,10260,1636570668,7235927,,"['front_left_hip_x', 'front_left_hip_y', 'front_left_knee', 'front_right_hip_x', 'front_right_hip_y', 'front_right_knee', 'rear_left_hip_x', 'rear_left_hip_y', 'rear_left_knee', 'rear_right_hip_x', 'rear_right_hip_y', 'rear_right_knee']",-0.022223353385925293,0.8211146593093872,-1.639891266822815,0.18278717994689941,1.1478922367095947,-2.201186418533325,-0.19293946027755737,1.1639082431793213,-2.2018933296203613,0.28387928009033203,0.8288901448249817,-1.674777865409851,0.7224704623222351,1.4303169250488281,0.20988696813583374,0.9225757122039795,-9.542468070983887,0.6453006863594055,-2.0332508087158203,-8.02943229675293,0.07593883574008942,1.482263445854187,1.3414247035980225,0.6704545617103577,-21.987220764160156,11.203948020935059,33.93681716918945,-4.68910551071167,5.458729267120361,-0.22183355689048767,-3.3408422470092773,-0.9770587682723999,-0.36659690737724304,22.589290618896484,24.38160514831543,60.715484619140625
1636570668.0483162,10261,1636570668,64235863,,"['front_left_hip_x', 'front_left_hip_y', 'front_left_knee', 'front_right_hip_x', 'front_right_hip_y', 'front_right_knee', 'rear_left_hip_x', 'rear_left_hip_y', 'rear_left_knee', 'rear_right_hip_x', 'rear_right_hip_y', 'rear_right_knee']",0.03161263465881348,0.8869960308074951,-1.6245354413986206,0.0734434723854065,0.6810813546180725,-1.93184494972229,-0.35864919424057007,0.7295389175415039,-1.9995357990264893,0.31527984142303467,0.904873788356781,-1.6449451446533203,0.2867662310600281,1.3992576599121094,0.14400598406791687,-3.249194622039795,-6.3487701416015625,7.7838544845581055,-2.3816213607788086,-6.296771049499512,6.665956497192383,0.06940759718418121,1.3738429546356201,0.9414358735084534,7.339087009429932,-2.174839735031128,33.26154327392578,-3.0447070598602295,5.303460121154785,-0.025991691276431084,6.238094329833984,5.0645575523376465,-0.6257972121238708,-7.9805216789245605,-11.838921546936035,30.27886390686035
1636570668.1155539,10262,1636570668,124235863,,"['front_left_hip_x', 'front_left_hip_y', 'front_left_knee', 'front_right_hip_x', 'front_right_hip_y', 'front_right_knee', 'rear_left_hip_x', 'rear_left_hip_y', 'rear_left_knee', 'rear_right_hip_x', 'rear_right_hip_y', 'rear_right_knee']",0.05458271503448486,0.9769920110702515,-1.6138774156570435,-0.015465855598449707,0.4655159115791321,-1.540679931640625,-0.3961709439754486,0.5217667818069458,-1.6590718030929565,0.361405611038208,0.9969390034675598,-1.6158634424209595,0.2224179208278656,1.5102217197418213,0.33814215660095215,0.16628675162792206,-0.28842365741729736,3.7219462394714355,0.9417733550071716,-0.27978551387786865,3.4223484992980957,0.9177097082138062,1.6698837280273438,0.23661665618419647,-4.471242427825928,3.199634313583374,30.347620010375977,4.642857074737549,9.53712272644043,-0.33372408151626587,10.494830131530762,9.10775375366211,-0.7635827660560608,-22.995710372924805,-8.851344108581543,41.006229400634766
1636570668.170523,10263,1636570668,193235799,,"['front_left_hip_x', 'front_left_hip_y', 'front_left_knee', 'front_right_hip_x', 'front_right_hip_y', 'front_right_knee', 'rear_left_hip_x', 'rear_left_hip_y', 'rear_left_knee', 'rear_right_hip_x', 'rear_right_hip_y', 'rear_right_knee']",0.041463375091552734,1.1475692987442017,-1.6906083822250366,0.0021652579307556152,0.6215937733650208,-1.5475667715072632,-0.2809709310531616,0.675773024559021,-1.6651757955551147,0.4238787889480591,1.2033185958862305,-1.7503265142440796,-0.8087377548217773,4.104200839996338,-4.828717231750488,-1.2405396699905396,2.6476783752441406,-0.6012073755264282,0.3195599317550659,1.8919031620025635,-1.3750592470169067,-0.23221850395202637,6.194998264312744,-8.035274505615234,4.799788475036621,-13.158595085144043,-3.793300151824951,-9.103288650512695,17.347143173217773,43.865753173828125,20.862621307373047,-8.059089660644531,33.5510368347168,-9.274121284484863,-1.4850660562515259,-7.139246463775635
1636570668.235606,10264,1636570668,247240791,,"['front_left_hip_x', 'front_left_hip_y', 'front_left_knee', 'front_right_hip_x', 'front_right_hip_y', 'front_right_knee', 'rear_left_hip_x', 'rear_left_hip_y', 'rear_left_knee', 'rear_right_hip_x', 'rear_right_hip_y', 'rear_right_knee']",0.03275346755981445,1.2119232416152954,-1.9955031871795654,0.01307225227355957,0.7388849854469299,-1.6362661123275757,-0.28755468130111694,0.7732530832290649,-1.6860603094100952,0.41955387592315674,1.2807211875915527,-2.102534770965576,-1.561910629272461,-0.31535816192626953,-5.495265483856201,0.24341443181037903,2.163945436477661,-1.2132457494735718,0.6850584745407104,1.6169695854187012,-0.2292332649230957,-0.3136559724807739,-2.002793550491333,-4.865411758422852,0.40006503462791443,-3.307131767272949,-2.043646812438965,6.102261066436768,12.155989646911621,44.295005798339844,-2.5571110248565674,13.006733894348145,47.55253601074219,-4.398244380950928,-0.7972046732902527,-1.0213379859924316
1636570668.2882736,10265,1636570668,304235863,,"['front_left_hip_x', 'front_left_hip_y', 'front_left_knee', 'front_right_hip_x', 'front_right_hip_y', 'front_right_knee', 'rear_left_hip_x', 'rear_left_hip_y', 'rear_left_knee', 'rear_right_hip_x', 'rear_right_hip_y', 'rear_right_knee']",-0.08116096258163452,1.0340917110443115,-2.187905788421631,0.012823104858398438,0.8510598540306091,-1.656655192375183,-0.23040354251861572,0.8645669221878052,-1.6961110830307007,0.2796058654785156,1.0076067447662354,-2.173673152923584,-2.8579769134521484,-6.011280059814453,-0.10806182026863098,0.18162555992603302,1.7896932363510132,-0.11041352897882462,0.9187803268432617,1.5549108982086182,0.035946935415267944,-3.5181784629821777,-7.282443523406982,1.5536813735961914,-2.5175371170043945,-2.5766208171844482,-0.16180956363677979,8.933710098266602,13.563759803771973,34.917667388916016,7.959229469299316,10.637472152709961,53.00369644165039,-3.109881639480591,1.7283762693405151,-1.3960357904434204
1636570668.3455172,10266,1636570668,364235863,,"['front_left_hip_x', 'front_left_hip_y', 'front_left_knee', 'front_right_hip_x', 'front_right_hip_y', 'front_right_knee', 'rear_left_hip_x', 'rear_left_hip_y', 'rear_left_knee', 'rear_right_hip_x', 'rear_right_hip_y', 'rear_right_knee']",-0.2456173300743103,0.713088870048523,-2.0225555896759033,0.043411076068878174,0.9600706696510315,-1.6459813117980957,-0.157231867313385,0.9666860103607178,-1.6980605125427246,0.023767054080963135,0.6248371005058289,-1.896677851676941,-2.2919459342956543,-4.1749677658081055,5.083333492279053,0.8062987327575684,1.7861961126327515,0.24939335882663727,1.2638819217681885,1.8283926248550415,0.10774924606084824,-4.449936866760254,-5.265571594238281,7.8977274894714355,1.4209667444229126,3.5335822105407715,-0.39645713567733765,13.09095573425293,15.080218315124512,31.716066360473633,0.6956294775009155,11.018614768981934,64.06633758544922,-2.994662046432495,4.1204915046691895,-0.4498271048069
1636570668.4078498,10267,1636570668,421245783,,"['front_left_hip_x', 'front_left_hip_y', 'front_left_knee', 'front_right_hip_x', 'front_right_hip_y', 'front_right_knee', 'rear_left_hip_x', 'rear_left_hip_y', 'rear_left_knee', 'rear_right_hip_x', 'rear_right_hip_y', 'rear_right_knee']",-0.3261982798576355,0.6227096319198608,-1.7646070718765259,0.09903764724731445,1.0659172534942627,-1.6107796430587769,-0.06223839521408081,1.0727990865707397,-1.6906462907791138,-0.14585667848587036,0.4521605372428894,-1.4678982496261597,-0.13230594992637634,0.5918685793876648,3.3245739936828613,0.9736498594284058,1.8528614044189453,1.0441229343414307,2.1015572547912598,1.9681472778320312,0.4067087173461914,-1.4347140789031982,-1.0447208881378174,5.923295497894287,6.6705780029296875,3.883183717727661,-2.0067126750946045,7.772353172302246,18.3356876373291,35.386966705322266,-13.068328857421875,15.612921714782715,61.355384826660156,3.703777313232422,3.8792266845703125,-1.0193661451339722
1636570668.4681027,10268,1636570668,481245783,,"['front_left_hip_x', 'front_left_hip_y', 'front_left_knee', 'front_right_hip_x', 'front_right_hip_y', 'front_right_knee', 'rear_left_hip_x', 'rear_left_hip_y', 'rear_left_knee', 'rear_right_hip_x', 'rear_right_hip_y', 'rear_right_knee']",-0.2501804232597351,0.7774364948272705,-1.7157593965530396,0.18810659646987915,1.2088663578033447,-1.580611228942871,0.0728539228439331,1.239598274230957,-1.7115627527236938,-0.09502619504928589,0.5945791602134705,-1.419993281364441,-0.7281757593154907,4.042303562164307,-0.7247573733329773,0.8878297805786133,4.9106764793396,-0.24535393714904785,0.9293547868728638,7.10225772857666,-6.033380508422852,0.2871795892715454,3.8932440280914307,-2.1175427436828613,-7.0882744789123535,-4.434206008911133,41.87178421020508,-4.4681396484375,10.292763710021973,-4.3466339111328125,4.48622465133667,10.858946800231934,-5.473583698272705,10.936415672302246,-7.911950588226318,35.8939208984375
1636570668.5268295,10269,1636570668,547245911,,"['front_left_hip_x', 'front_left_hip_y', 'front_left_knee', 'front_right_hip_x', 'front_right_hip_y', 'front_right_knee', 'rear_left_hip_x', 'rear_left_hip_y', 'rear_left_knee', 'rear_right_hip_x', 'rear_right_hip_y', 'rear_right_knee']",-0.2513725161552429,0.9509090185165405,-1.7236689329147339,0.3345262408256531,1.355987548828125,-1.9503326416015625,0.08463680744171143,1.418519377708435,-2.1515116691589355,-0.006108283996582031,0.8289156556129456,-1.5489435195922852,-0.33293449878692627,1.6984076499938965,0.14294064044952393,2.735393762588501,-0.08985918015241623,-6.9635419845581055,-1.3541128635406494,-1.3238904476165771,-4.691643238067627,0.18626625835895538,2.794971466064453,-0.22789418697357178,-24.049753189086914,-18.30348014831543,41.36228561401367,-2.967625856399536,2.348177671432495,-1.6823662519454956,0.009224368259310722,-6.07097053527832,-0.49878373742103577,30.487060546875,5.039350986480713,32.543888092041016
1636570668.5893693,10270,1636570668,604245847,,"['front_left_hip_x', 'front_left_hip_y', 'front_left_knee', 'front_right_hip_x', 'front_right_hip_y', 'front_right_knee', 'rear_left_hip_x', 'rear_left_hip_y', 'rear_left_knee', 'rear_right_hip_x', 'rear_right_hip_y', 'rear_right_knee']",-0.26984983682632446,1.0402593612670898,-1.6995407342910767,0.45089441537857056,1.1520898342132568,-2.190768241882324,0.007311105728149414,1.126155972480774,-2.22961688041687,0.015323281288146973,0.9539615511894226,-1.5399154424667358,-0.5063117146492004,1.3459141254425049,0.7993016242980957,1.7486008405685425,-7.803624629974365,0.08156470954418182,-2.165067195892334,-7.099796295166016,1.4032907485961914,0.5916260480880737,1.9105263948440552,0.6047733426094055,-7.264471054077148,-14.176092147827148,40.845977783203125,0.35200411081314087,-1.7974990606307983,-0.18526536226272583,0.08606075495481491,1.0677168369293213,-0.8572501540184021,11.889595031738281,-1.4542663097381592,27.13999366760254
1636570668.6440477,10271,1636570668,661245783,,"['front_left_hip_x', 'front_left_hip_y', 'front_left_knee', 'front_right_hip_x', 'front_right_hip_y', 'front_right_knee', 'rear_left_hip_x', 'rear_left_hip_y', 'rear_left_knee', 'rear_right_hip_x', 'rear_right_hip_y', 'rear_right_knee']",-0.2911599278450012,1.1120976209640503,-1.6441256999969482,0.4441126883029938,0.7217244505882263,-2.0121872425079346,-0.1339418888092041,0.7460700273513794,-2.0630362033843994,0.04284948110580444,1.0621464252471924,-1.4998561143875122,-0.44565877318382263,1.298804521560669,1.1787109375,-1.72674560546875,-6.792806625366211,6.164299488067627,-2.402738571166992,-5.689279556274414,5.574573993682861,0.5139570236206055,1.8920130729675293,0.9497218132019043,13.682151794433594,-4.100257873535156,39.430965423583984,-5.423946380615234,5.489782810211182,-0.06821028888225555,3.3746583461761475,5.507506370544434,0.11676792055368423,-4.932443618774414,-9.775336265563965,29.677730560302734
1636570668.712484,10272,1636570668,724260951,,"['front_left_hip_x', 'front_left_hip_y', 'front_left_knee', 'front_right_hip_x', 'front_right_hip_y', 'front_right_knee', 'rear_left_hip_x', 'rear_left_hip_y', 'rear_left_knee', 'rear_right_hip_x', 'rear_right_hip_y', 'rear_right_knee']",-0.3215259909629822,1.2008023262023926,-1.556145429611206,0.3107137084007263,0.5028799176216125,-1.648314118385315,-0.24094271659851074,0.5876288414001465,-1.746125340461731,0.10422831773757935,1.1800916194915771,-1.4387365579605103,-0.2839452624320984,1.378977656364441,1.6794507503509521,-2.0405547618865967,0.10422955453395844,3.5989584922790527,-0.7523438334465027,0.5759574770927429,3.0642757415771484,1.0441319942474365,1.6983718872070312,1.3205492496490479,1.2810461521148682,-7.387557506561279,35.59640884399414,-0.06423432379961014,8.077595710754395,-0.8269135355949402,7.79531192779541,7.438969612121582,-1.2412830591201782,-8.677075386047363,-15.812090873718262,30.65732192993164
1636570668.7765944,10273,1636570668,784255831,,"['front_left_hip_x', 'front_left_hip_y', 'front_left_knee', 'front_right_hip_x', 'front_right_hip_y', 'front_right_knee', 'rear_left_hip_x', 'rear_left_hip_y', 'rear_left_knee', 'rear_right_hip_x', 'rear_right_hip_y', 'rear_right_knee']",-0.35364824533462524,1.3377933502197266,-1.5250823497772217,0.23041880130767822,0.6562657952308655,-1.610476016998291,-0.1940164566040039,0.7536677122116089,-1.7345725297927856,0.18190932273864746,1.3189690113067627,-1.4136656522750854,-0.6493149995803833,5.5481061935424805,-5.341145992279053,-1.8528779745101929,3.280778646469116,-0.6213009357452393,0.5904030799865723,3.2659075260162354,-1.3805043697357178,0.6825531721115112,4.507800579071045,-4.872395992279053,4.747966289520264,-7.079699516296387,-2.300291061401367,-2.6130523681640625,0.6195184588432312,28.16458511352539,16.349763870239258,2.3862621784210205,51.340576171875,-9.101292610168457,-2.3269264698028564,-2.7194101810455322
1636570668.825109,10274,1636570668,841246039,,"['front_left_hip_x', 'front_left_hip_y', 'front_left_knee', 'front_right_hip_x', 'front_right_hip_y', 'front_right_knee', 'rear_left_hip_x', 'rear_left_hip_y', 'rear_left_knee', 'rear_right_hip_x', 'rear_right_hip_y', 'rear_right_knee']",-0.30515092611312866,1.484646201133728,-1.9588474035263062,0.18226993083953857,0.8170323967933655,-1.6491929292678833,-0.19734352827072144,0.9020636081695557,-1.7629351615905762,0.21085131168365479,1.4250061511993408,-1.8623390197753906,1.5093525648117065,0.5476787090301514,-8.738399505615234,-0.26545092463493347,2.591630458831787,-0.7001805305480957,0.19405782222747803,2.2344653606414795,0.09574751555919647,1.6336205005645752,-1.4662363529205322,-8.234611511230469,5.530484676361084,2.7091481685638428,-1.7717629671096802,-6.194758415222168,2.3999338150024414,51.446746826171875,-5.891810417175293,3.1691486835479736,36.40792465209961,-0.004193889442831278,-3.076387405395508,-1.6734660863876343
1636570668.8880534,10275,1636570668,904245847,,"['front_left_hip_x', 'front_left_hip_y', 'front_left_knee', 'front_right_hip_x', 'front_right_hip_y', 'front_right_knee', 'rear_left_hip_x', 'rear_left_hip_y', 'rear_left_knee', 'rear_right_hip_x', 'rear_right_hip_y', 'rear_right_knee']",-0.13774651288986206,1.2058194875717163,-2.2649085521698,0.12942761182785034,0.9648168683052063,-1.6338691711425781,-0.18144512176513672,1.036810278892517,-1.740740418434143,0.22720491886138916,1.076220989227295,-2.1648049354553223,2.7394087314605713,-10.215950012207031,0.6140210628509521,-1.015365481376648,1.9050028324127197,0.9169626235961914,0.0754358172416687,1.7571345567703247,0.9581558108329773,0.11164155602455139,-10.57293701171875,1.3757102489471436,2.6284291744232178,-2.9418764114379883,-0.5855540037155151,5.727132320404053,-0.9228182435035706,44.328678131103516,-11.572580337524414,2.504725456237793,37.54339599609375,-0.726934015750885,3.299164295196533,-0.5586563348770142
1636570668.9476616,10276,1636570668,964260951,,"['front_left_hip_x', 'front_left_hip_y', 'front_left_knee', 'front_right_hip_x', 'front_right_hip_y', 'front_right_knee', 'rear_left_hip_x', 'rear_left_hip_y', 'rear_left_knee', 'rear_right_hip_x', 'rear_right_hip_y', 'rear_right_knee']",0.028440117835998535,0.6449768543243408,-1.9234219789505005,0.08399271965026855,1.0809025764465332,-1.5644725561141968,-0.16624540090560913,1.158348798751831,-1.6968621015548706,0.21925020217895508,0.5286301970481873,-1.826961636543274,2.0408987998962402,-6.793251991271973,8.352510452270508,-0.7295455932617188,1.8496005535125732,1.4965081214904785,0.1525832563638687,2.1088643074035645,0.7569839358329773,-0.1614089012145996,-6.368294715881348,7.587121486663818,-0.423911452293396,5.573794841766357,-1.0878963470458984,18.275949478149414,1.0439198017120361,28.136058807373047,-9.528733253479004,-4.757575988769531,53.20155715942383,-2.680427312850952,10.15211296081543,-0.6747363805770874
1636570669.0091124,10277,1636570669,24260695,,"['front_left_hip_x', 'front_left_hip_y', 'front_left_knee', 'front_right_hip_x', 'front_right_hip_y', 'front_right_knee', 'rear_left_hip_x', 'rear_left_hip_y', 'rear_left_knee', 'rear_right_hip_x', 'rear_right_hip_y', 'rear_right_knee']",0.09376758337020874,0.3564736843109131,-1.5182273387908936,-0.014935851097106934,1.1499018669128418,-1.403883934020996,-0.18750953674316406,1.254531741142273,-1.6089298725128174,0.23698103427886963,0.28294843435287476,-1.4717172384262085,2.041642665863037,-7.010918617248535,8.314630508422852,-0.8005669116973877,0.7559630870819092,2.113518238067627,-0.5621386170387268,0.02923702448606491,3.063920497894287,2.4778130054473877,-5.749224662780762,6.103219985961914,11.832091331481934,11.605729103088379,-6.4645795822143555,-13.563719749450684,-20.911087036132812,37.463382720947266,-29.024686813354492,-19.46759796142578,43.915992736816406,13.350787162780762,6.153275966644287,-2.9714536666870117
1636570669.0662332,10278,1636570669,87255895,,"['front_left_hip_x', 'front_left_hip_y', 'front_left_knee', 'front_right_hip_x', 'front_right_hip_y', 'front_right_knee', 'rear_left_hip_x', 'rear_left_hip_y', 'rear_left_knee', 'rear_right_hip_x', 'rear_right_hip_y', 'rear_right_knee']",-0.01234060525894165,0.4624159336090088,-1.5364593267440796,-0.12899237871170044,1.320460557937622,-1.4185686111450195,-0.30748558044433594,1.4007295370101929,-1.581382155418396,0.15732431411743164,0.4355615973472595,-1.5448369979858398,-1.861036777496338,3.671581745147705,-2.176905870437622,-2.5551598072052,4.868648529052734,-4.586055755615234,-2.079664468765259,4.258439064025879,-3.7286932468414307,-1.689322590827942,4.339807033538818,-3.156841993331909,-6.860256195068359,-2.7905561923980713,21.823287963867188,8.676773071289062,-10.119906425476074,-1.2033957242965698,9.823792457580566,-8.038487434387207,-4.710412979125977,-0.29224249720573425,7.5905985832214355,49.553428649902344
1636570669.138127,10279,1636570669,144245847,,"['front_left_hip_x', 'front_left_hip_y', 'front_left_knee', 'front_right_hip_x', 'front_right_hip_y', 'front_right_knee', 'rear_left_hip_x', 'rear_left_hip_y', 'rear_left_knee', 'rear_right_hip_x', 'rear_right_hip_y', 'rear_right_knee']",-0.10162514448165894,0.6288197040557861,-1.6149321794509888,-0.08362138271331787,1.4834411144256592,-1.8247219324111938,-0.31236404180526733,1.5243512392044067,-1.9242427349090576,0.11695849895477295,0.6307173371315002,-1.6733397245407104,-1.0252604484558105,2.2962024211883545,-1.1611328125,1.8116117715835571,1.7080470323562622,-8.772016525268555,-0.151105135679245,0.3575720489025116,-6.134943008422852,0.1400369107723236,2.948003053665161,-1.6094934940338135,-7.186737060546875,-14.708321571350098,40.6602783203125,-5.274922847747803,4.961868762969971,-1.530380368232727,-1.3584634065628052,-2.414067268371582,-1.4951889514923096,22.09699058532715,0.7735834717750549,34.390777587890625
1636570669.2223728,10280,1636570669,216245847,,"['front_left_hip_x', 'front_left_hip_y', 'front_left_knee', 'front_right_hip_x', 'front_right_hip_y', 'front_right_knee', 'rear_left_hip_x', 'rear_left_hip_y', 'rear_left_knee', 'rear_right_hip_x', 'rear_right_hip_y', 'rear_right_knee']",-0.10369521379470825,0.7821276187896729,-1.651412010192871,0.0805060863494873,1.2857506275177002,-2.180957078933716,-0.27524620294570923,1.2841049432754517,-2.199193000793457,0.12676680088043213,0.7800962328910828,-1.6786926984786987,0.5946996212005615,1.5872385501861572,-0.03834487497806549,2.2509536743164062,-8.368956565856934,0.1161702498793602,0.7051150798797607,-8.320018768310547,0.3833155930042267,1.0665080547332764,1.6193467378616333,0.2041829526424408,-12.042497634887695,-4.606398105621338,44.136810302734375,-1.4928057193756104,-2.7756924629211426,-0.9507710337638855,-1.6350743770599365,-5.483806133270264,-0.7934631109237671,13.41887092590332,-0.8485375642776489,28.904752731323242
1636570669.2683632,10281,1636570669,282245975,,"['front_left_hip_x', 'front_left_hip_y', 'front_left_knee', 'front_right_hip_x', 'front_right_hip_y', 'front_right_knee', 'rear_left_hip_x', 'rear_left_hip_y', 'rear_left_knee', 'rear_right_hip_x', 'rear_right_hip_y', 'rear_right_knee']",-0.07709765434265137,0.8898849487304688,-1.6394598484039307,0.1448301076889038,0.700672447681427,-1.8748799562454224,-0.2390514612197876,0.709007740020752,-1.8945059776306152,0.14646053314208984,0.8824647068977356,-1.6254348754882812,0.39625412225723267,1.7490366697311401,0.20137903094291687,1.0196623802185059,-7.54282283782959,7.322443008422852,1.2242436408996582,-7.27797269821167,6.640625,0.28348466753959656,1.6902753114700317,0.8289240598678589,-7.197101593017578,14.188607215881348,29.13628387451172,-0.4753340184688568,5.262055397033691,-0.8500553369522095,7.144763946533203,4.652512073516846,-1.2991477251052856,-12.56311321258545,4.05375862121582,54.882781982421875
1636570669.3293667,10282,1636570669,342245975,,"['front_left_hip_x', 'front_left_hip_y', 'front_left_knee', 'front_right_hip_x', 'front_right_hip_y', 'front_right_knee', 'rear_left_hip_x', 'rear_left_hip_y', 'rear_left_knee', 'rear_right_hip_x', 'rear_right_hip_y', 'rear_right_knee']",-0.05281376838684082,0.9795739650726318,-1.6299203634262085,0.1905651092529297,0.41036611795425415,-1.5006685256958008,-0.15179568529129028,0.4198712110519409,-1.5302814245224,0.18277812004089355,0.9895502924919128,-1.6595659255981445,1.6700177192687988,1.7406089305877686,-0.3615574836730957,0.0598626583814621,-3.3491454124450684,4.207859992980957,1.7236005067825317,-3.501929998397827,4.58984375,1.8862743377685547,0.844632625579834,-4.170099258422852,-1.5899158716201782,-29.97078514099121,31.848596572875977,-2.047790288925171,12.300907135009766,-3.874783515930176,5.771953582763672,6.779696941375732,-1.3596867322921753,-6.0270280838012695,-15.155029296875,1.1823030710220337
1636570669.3901029,10283,1636570669,405275991,,"['front_left_hip_x', 'front_left_hip_y', 'front_left_knee', 'front_right_hip_x', 'front_right_hip_y', 'front_right_knee', 'rear_left_hip_x', 'rear_left_hip_y', 'rear_left_knee', 'rear_right_hip_x', 'rear_right_hip_y', 'rear_right_knee']",-0.09722208976745605,1.168897032737732,-1.7675151824951172,0.16898113489151,0.5079324841499329,-1.5331536531448364,-0.15304571390151978,0.511989951133728,-1.550287127494812,0.16664981842041016,1.197591781616211,-1.827696681022644,0.9333037734031677,2.8819713592529297,-6.119555473327637,-0.1461208015680313,1.851223111152649,-1.34706449508667,-0.6477947235107422,1.767469882965088,-1.3545514345169067,-0.9189810752868652,1.5010850429534912,-4.899739742279053,-3.367424964904785,-3.0827605724334717,-2.343384265899658,6.724049091339111,2.4154608249664307,32.35239791870117,-4.682917594909668,12.5637845993042,42.48009490966797,3.619981288909912,-13.009312629699707,-2.460787296295166
1636570669.4489067,10284,1636570669,462255959,,"['front_left_hip_x', 'front_left_hip_y', 'front_left_knee', 'front_right_hip_x', 'front_right_hip_y', 'front_right_knee', 'rear_left_hip_x', 'rear_left_hip_y', 'rear_left_knee', 'rear_right_hip_x', 'rear_right_hip_y', 'rear_right_knee']",-0.17459219694137573,1.2296398878097534,-2.060793161392212,0.15899378061294556,0.6121969819068909,-1.5983319282531738,-0.15526384115219116,0.6001214981079102,-1.586175799369812,0.16684293746948242,1.2332251071929932,-2.0691866874694824,-1.7307260036468506,0.11697602272033691,-4.346945762634277,-0.7995419502258301,1.592721700668335,-0.18505120277404785,-0.14589309692382812,1.834120273590088,-0.28773823380470276,-0.7621093988418579,0.22713246941566467,-3.794981002807617,0.5296210646629333,0.4289102554321289,-0.029483400285243988,9.128982543945312,-3.9039790630340576,33.17048645019531,7.493088722229004,-4.937845706939697,30.476661682128906,-2.8742053508758545,-1.2232680320739746,-1.979587435722351
1636570669.515857,10285,1636570669,525256023,,"['front_left_hip_x', 'front_left_hip_y', 'front_left_knee', 'front_right_hip_x', 'front_right_hip_y', 'front_right_knee', 'rear_left_hip_x', 'rear_left_hip_y', 'rear_left_knee', 'rear_right_hip_x', 'rear_right_hip_y', 'rear_right_knee']",-0.23566395044326782,1.0877466201782227,-2.1477346420288086,0.18043726682662964,0.6981974244117737,-1.6255440711975098,-0.1434553861618042,0.6858373880386353,-1.604407787322998,0.15532910823822021,1.072251558303833,-2.1257681846618652,-1.7561107873916626,-4.058401107788086,1.0853753089904785,0.5316193103790283,1.4706227779388428,-0.566110372543335,0.6680649518966675,1.27923583984375,-0.3691110610961914,-0.8200602531433105,-3.637023448944092,1.6474313735961914,-0.49128058552742004,-2.5035696029663086,-0.653161883354187,7.756937026977539,5.11196231842041,32.87333679199219,-2.085847854614258,8.438179969787598,43.725341796875,-3.8588080406188965,-1.408066749572754,-0.9150660634040833
1636570669.5730536,10286,1636570669,588255831,,"['front_left_hip_x', 'front_left_hip_y', 'front_left_knee', 'front_right_hip_x', 'front_right_hip_y', 'front_right_knee', 'rear_left_hip_x', 'rear_left_hip_y', 'rear_left_knee', 'rear_right_hip_x', 'rear_right_hip_y', 'rear_right_knee']",-0.30247825384140015,0.7337583303451538,-1.8836504220962524,0.20126134157180786,0.7767338156700134,-1.6453419923782349,-0.13482016324996948,0.76787269115448,-1.6115025281906128,0.08483707904815674,0.7372850775718689,-1.8619874715805054,-0.8632106781005859,-5.761733055114746,5.524384498596191,0.6465244293212891,1.3067476749420166,-0.5343868732452393,0.3876209557056427,1.3417837619781494,-0.20974640548229218,-0.7079170942306519,-5.487858772277832,6.166903495788574,1.3950555324554443,2.3282389640808105,-1.1195530891418457,8.337615013122559,13.20146656036377,21.698902130126953,-3.54573917388916,38.69776916503906,76.77593231201172,-2.6437666416168213,4.0332255363464355,-1.2100814580917358
1636570669.6232712,10287,1636570669,642270807,,"['front_left_hip_x', 'front_left_hip_y', 'front_left_knee', 'front_right_hip_x', 'front_right_hip_y', 'front_right_knee', 'rear_left_hip_x', 'rear_left_hip_y', 'rear_left_knee', 'rear_right_hip_x', 'rear_right_hip_y', 'rear_right_knee']",-0.3165590167045593,0.6032289266586304,-1.6219149827957153,0.21401375532150269,0.858166515827179,-1.6589401960372925,-0.12122315168380737,0.858017086982727,-1.6291272640228271,0.07336187362670898,0.6365785002708435,-1.6340794563293457,1.175282597541809,3.0645387172698975,2.4351327419281006,0.3306733965873718,1.8006885051727295,-0.29401928186416626,0.13902288675308228,2.037543296813965,-0.38858312368392944,1.0276756286621094,3.5130958557128906,1.7382221221923828,13.35048770904541,23.173892974853516,0.6928619742393494,0.6397739052772522,2.0479912757873535,6.7405853271484375,2.3757851123809814,40.273841857910156,96.19454956054688,0.08483931422233582,20.706165313720703,1.3254374265670776
1636570669.6851082,10288,1636570669,705270871,,"['front_left_hip_x', 'front_left_hip_y', 'front_left_knee', 'front_right_hip_x', 'front_right_hip_y', 'front_right_knee', 'rear_left_hip_x', 'rear_left_hip_y', 'rear_left_knee', 'rear_right_hip_x', 'rear_right_hip_y', 'rear_right_knee']",-0.2637036442756653,0.7696071863174438,-1.640961766242981,0.2624754309654236,1.0298547744750977,-1.8421710729599,-0.13114690780639648,1.0296216011047363,-1.7970502376556396,0.08247512578964233,0.7849285006523132,-1.6200978755950928,0.8111353516578674,1.7806639671325684,-0.5755356550216675,0.6473995447158813,1.550536036491394,-4.512192726135254,1.6442923545837402,1.947413682937622,-4.87831449508667,0.27609479427337646,1.315730094909668,-0.3353160619735718,-6.9846296310424805,8.850658416748047,31.84100341796875,7.207091331481934,-14.05338191986084,-2.7190372943878174,2.4474990367889404,-12.18984603881836,-7.145235061645508,-8.263333320617676,3.304297685623169,41.29863739013672
1636570669.748484,10289,1636570669,759255895,,"['front_left_hip_x', 'front_left_hip_y', 'front_left_knee', 'front_right_hip_x', 'front_right_hip_y', 'front_right_knee', 'rear_left_hip_x', 'rear_left_hip_y', 'rear_left_knee', 'rear_right_hip_x', 'rear_right_hip_y', 'rear_right_knee']",-0.2425794005393982,0.8575258255004883,-1.661638617515564,0.3220803737640381,1.0168790817260742,-2.084348201751709,-0.11951148509979248,1.0057356357574463,-2.0283777713775635,0.10368126630783081,0.8645938038825989,-1.6458719968795776,-0.026940960437059402,1.7478845119476318,-0.05749882012605667,0.44602394104003906,-1.0829179286956787,-3.884824752807617,-0.5526406764984131,-1.042179822921753,-3.4457859992980957,-0.09255008399486542,1.7124030590057373,-0.10383744537830353,-8.803596496582031,6.173857688903809,39.03280258178711,-2.6233298778533936,-3.2466745376586914,-1.6914647817611694,0.803200364112854,-2.9033713340759277,-1.2544450759887695,20.263954162597656,11.173638343811035,45.356163024902344
1636570669.8085985,10290,1636570669,825270871,,"['front_left_hip_x', 'front_left_hip_y', 'front_left_knee', 'front_right_hip_x', 'front_right_hip_y', 'front_right_knee', 'rear_left_hip_x', 'rear_left_hip_y', 'rear_left_knee', 'rear_right_hip_x', 'rear_right_hip_y', 'rear_right_knee']",-0.20832300186157227,0.9548077583312988,-1.6609035730361938,0.2724500894546509,0.8162093758583069,-2.115283489227295,-0.1797846555709839,0.8206354379653931,-2.099052667617798,0.12341368198394775,0.9707716107368469,-1.664854884147644,0.07270936667919159,1.5176866054534912,0.1450861096382141,-2.8613524436950684,-3.355792999267578,1.9061317443847656,-2.547867774963379,-3.5038866996765137,1.5236742496490479,0.14330175518989563,1.6479454040527344,0.05209258198738098,-0.08188347518444061,-13.002057075500488,39.151309967041016,-6.9912638664245605,1.494199275970459,-0.936434268951416,-1.927052617073059,-1.8629565238952637,-0.19149908423423767,20.45249366760254,-4.477777004241943,27.405258178710938
1636570669.8653166,10291,1636570669,891255895,,"['front_left_hip_x', 'front_left_hip_y', 'front_left_knee', 'front_right_hip_x', 'front_right_hip_y', 'front_right_knee', 'rear_left_hip_x', 'rear_left_hip_y', 'rear_left_knee', 'rear_right_hip_x', 'rear_right_hip_y', 'rear_right_knee']",-0.17415636777877808,1.0582764148712158,-1.655598521232605,0.07428634166717529,0.6186464428901672,-1.8186339139938354,-0.3080112338066101,0.6337202787399292,-1.8607264757156372,0.153031587600708,1.0745079517364502,-1.6490517854690552,0.6006897687911987,1.5757806301116943,0.12490752339363098,-2.529141902923584,-1.8135900497436523,5.475142478942871,-1.5961216688156128,-1.4650335311889648,3.8879027366638184,0.8422536849975586,1.6382231712341309,0.06141616404056549,-6.414583206176758,-6.390932083129883,33.2757453918457,0.7887974977493286,3.0158333778381348,-1.9135382175445557,3.215862989425659,2.4635207653045654,-1.3878507614135742,-0.8997631669044495,-9.826669692993164,34.96299743652344
1636570669.9263952,10292,1636570669,945255767,,"['front_left_hip_x', 'front_left_hip_y', 'front_left_knee', 'front_right_hip_x', 'front_right_hip_y', 'front_right_knee', 'rear_left_hip_x', 'rear_left_hip_y', 'rear_left_knee', 'rear_right_hip_x', 'rear_right_hip_y', 'rear_right_knee']",-0.1511414647102356,1.150796890258789,-1.6440937519073486,0.04185295104980469,0.609708845615387,-1.6140552759170532,-0.3077163100242615,0.6381996870040894,-1.6941936016082764,0.18302273750305176,1.1580657958984375,-1.6177489757537842,0.32984447479248047,1.7184350490570068,0.28109464049339294,2.0437872409820557,2.7917840480804443,1.7509469985961914,2.2851850986480713,2.9958655834198,1.5276988744735718,0.4986925721168518,1.9400405883789062,0.9207504987716675,-19.789949417114258,4.26931095123291,29.62090492248535,10.326310157775879,14.479846000671387,0.02133534848690033,14.597893714904785,14.438591957092285,-0.7449413537979126,-18.528337478637695,-3.1482534408569336,55.64738845825195
1636570669.990913,10293,1636570670,5256023,,"['front_left_hip_x', 'front_left_hip_y', 'front_left_knee', 'front_right_hip_x', 'front_right_hip_y', 'front_right_knee', 'rear_left_hip_x', 'rear_left_hip_y', 'rear_left_knee', 'rear_right_hip_x', 'rear_right_hip_y', 'rear_right_knee']",-0.18195611238479614,1.3300535678863525,-1.802269458770752,0.038308799266815186,0.7528812289237976,-1.658157229423523,-0.266457200050354,0.7829979658126831,-1.7370811700820923,0.1884995698928833,1.349757432937622,-1.7856240272521973,0.10658678412437439,1.564117670059204,-5.361742973327637,0.050940148532390594,2.139434337615967,-1.4351918697357178,-0.39519163966178894,1.8147594928741455,-0.5615234375,-0.8795526027679443,2.250964641571045,-5.825284004211426,1.9910132884979248,-11.614086151123047,-5.159267425537109,-1.0560122728347778,7.49275016784668,42.522769927978516,7.697985649108887,11.605779647827148,51.556705474853516,7.6107635498046875,-18.77913475036621,-1.9379570484161377
1636570670.0450566,10294,1636570670,65256023,,"['front_left_hip_x', 'front_left_hip_y', 'front_left_knee', 'front_right_hip_x', 'front_right_hip_y', 'front_right_knee', 'rear_left_hip_x', 'rear_left_hip_y', 'rear_left_knee', 'rear_right_hip_x', 'rear_right_hip_y', 'rear_right_knee']",-0.19800442457199097,1.306623101234436,-2.163905382156372,0.04639965295791626,0.8694644570350647,-1.7159371376037598,-0.2909524440765381,0.878880500793457,-1.7377203702926636,0.24037909507751465,1.3157539367675781,-2.118082284927368,-0.44521564245224,-2.4474265575408936,-4.580965995788574,-0.1453087329864502,2.047218084335327,-0.5662435293197632,0.10525061190128326,1.8217496871948242,-0.12247167527675629,0.5681374073028564,-1.5122277736663818,-5.34919548034668,-1.6261916160583496,-6.458765029907227,-1.2045265436172485,11.991263389587402,6.395517349243164,39.35085678100586,-5.902055263519287,9.658864974975586,50.178993225097656,-0.9573729038238525,-6.674826622009277,-2.1882028579711914
1636570670.120379,10295,1636570670,122255959,,"['front_left_hip_x', 'front_left_hip_y', 'front_left_knee', 'front_right_hip_x', 'front_right_hip_y', 'front_right_knee', 'rear_left_hip_x', 'rear_left_hip_y', 'rear_left_knee', 'rear_right_hip_x', 'rear_right_hip_y', 'rear_right_knee']",-0.1888202428817749,0.9708307981491089,-2.2177066802978516,0.034975409507751465,0.9638155102729797,-1.7031220197677612,-0.29947221279144287,0.9734594821929932,-1.7241861820220947,0.28527581691741943,0.9921771883964539,-2.216688632965088,0.7251925468444824,-7.116847991943359,2.373106002807617,0.0377192460000515,1.5845146179199219,0.38825756311416626,0.29117676615715027,1.7567558288574219,0.27516868710517883,1.1393897533416748,-7.14614200592041,2.406190872192383,5.214367866516113,2.2917134761810303,-0.5530341267585754,8.491777420043945,7.999961853027344,40.17704391479492,-11.931150436401367,8.788418769836426,52.467647552490234,-2.8375446796417236,2.4470374584198,-0.10655052214860916
1636570670.185497,10296,1636570670,197256023,,"['front_left_hip_x', 'front_left_hip_y', 'front_left_knee', 'front_right_hip_x', 'front_right_hip_y', 'front_right_knee', 'rear_left_hip_x', 'rear_left_hip_y', 'rear_left_knee', 'rear_right_hip_x', 'rear_right_hip_y', 'rear_right_knee']",-0.13315117359161377,0.5857038497924805,-1.8262698650360107,0.026852726936340332,1.0904715061187744,-1.6573902368545532,-0.29099082946777344,1.1147304773330688,-1.7054747343063354,0.264018177986145,0.5965349078178406,-1.8546850681304932,0.2398877739906311,-2.2082643508911133,4.828006744384766,0.03897283971309662,1.7114653587341309,0.7566584348678589,-0.20659518241882324,2.002293109893799,0.5610203742980957,-0.625055193901062,-2.2424418926239014,4.862570762634277,0.3897005617618561,5.7251152992248535,-1.1463229656219482,7.438334941864014,12.388893127441406,34.58836364746094,4.865283966064453,0.7226287722587585,59.45806884765625,-5.393321514129639,7.323667049407959,-1.0277396440505981
1636570670.2475176,10297,1636570670,263255895,,"['front_left_hip_x', 'front_left_hip_y', 'front_left_knee', 'front_right_hip_x', 'front_right_hip_y', 'front_right_knee', 'rear_left_hip_x', 'rear_left_hip_y', 'rear_left_knee', 'rear_right_hip_x', 'rear_right_hip_y', 'rear_right_knee']",-0.17824524641036987,0.6729964017868042,-1.6736067533493042,0.02629721164703369,1.203960657119751,-1.581570029258728,-0.3002094030380249,1.2429530620574951,-1.645266056060791,0.16264021396636963,0.6775041222572327,-1.686650276184082,0.7719265818595886,1.9999406337738037,-2.1312146186828613,-0.6230450868606567,0.8478800058364868,3.1927084922790527,-0.8938876390457153,2.0201549530029297,1.4236801862716675,-0.5576645135879517,2.4526076316833496,-0.9142400622367859,5.7895965576171875,-9.422553062438965,25.938566207885742,6.1073994636535645,14.200362205505371,40.54046630859375,-1.747767686843872,3.890228271484375,56.759681701660156,7.479832649230957,-6.30009651184082,21.794851303100586
1636570670.309429,10298,1636570670,326255959,,"['front_left_hip_x', 'front_left_hip_y', 'front_left_knee', 'front_right_hip_x', 'front_right_hip_y', 'front_right_knee', 'rear_left_hip_x', 'rear_left_hip_y', 'rear_left_knee', 'rear_right_hip_x', 'rear_right_hip_y', 'rear_right_knee']",-0.13585585355758667,0.8538699150085449,-1.7401752471923828,0.07830297946929932,1.4100782871246338,-1.8228365182876587,-0.2832915782928467,1.4461562633514404,-1.8735095262527466,0.20037376880645752,0.8433991074562073,-1.7179211378097534,0.05644770711660385,2.4261207580566406,-0.5419182181358337,0.6706029176712036,0.9652611017227173,-5.712357997894287,-0.07292379438877106,-0.039377011358737946,-5.250828742980957,0.755236029624939,2.119950294494629,-0.6358901858329773,-4.9376444816589355,-1.225175380706787,50.20024871826172,6.436279296875,-2.397871732711792,-2.3724281787872314,-3.9965126514434814,-7.137138366699219,-3.235405921936035,5.589186191558838,0.4758524000644684,30.792945861816406
1636570670.3695233,10299,1636570670,383255895,,"['front_left_hip_x', 'front_left_hip_y', 'front_left_knee', 'front_right_hip_x', 'front_right_hip_y', 'front_right_knee', 'rear_left_hip_x', 'rear_left_hip_y', 'rear_left_knee', 'rear_right_hip_x', 'rear_right_hip_y', 'rear_right_knee']",-0.14696913957595825,0.9866619110107422,-1.7350460290908813,0.14301657676696777,1.359802484512329,-2.1759235858917236,-0.2943115830421448,1.3801599740982056,-2.1960132122039795,0.1865752935409546,0.9669813513755798,-1.7028369903564453,-0.02995976060628891,1.9877095222473145,0.5743223428726196,1.035210132598877,-4.880557537078857,-4.056818008422852,0.8889486789703369,-5.2005720138549805,-4.191524505615234,-0.07592488080263138,1.950520396232605,0.42502665519714355,-9.539475440979004,-5.274293899536133,40.9696044921875,7.299588680267334,-11.941726684570312,-0.6049015522003174,-3.4432907104492188,-12.715203285217285,-1.7636661529541016,5.604897975921631,-1.0846691131591797,31.69034194946289
1636570670.4277127,10300,1636570670,443270999,,"['front_left_hip_x', 'front_left_hip_y', 'front_left_knee', 'front_right_hip_x', 'front_right_hip_y', 'front_right_knee', 'rear_left_hip_x', 'rear_left_hip_y', 'rear_left_knee', 'rear_right_hip_x', 'rear_right_hip_y', 'rear_right_knee']",-0.15241044759750366,1.086174488067627,-1.6769304275512695,0.21283870935440063,0.8541284203529358,-2.1410415172576904,-0.24406462907791138,0.8615827560424805,-2.152630090713501,0.16470623016357422,1.0679948329925537,-1.646591067314148,-3.053923137485981e-05,1.6281614303588867,1.1696555614471436,0.638135552406311,-9.070138931274414,5.194602012634277,1.5435186624526978,-9.085047721862793,5.211884498596191,-0.6954496502876282,1.650881052017212,1.4370265007019043,-2.061499834060669,-4.710756778717041,38.42304611206055,-3.974820137023926,4.630629062652588,0.26601263880729675,4.855039119720459,1.9639157056808472,-0.21387416124343872,2.656327724456787,-4.703641891479492,35.26644515991211
1636570670.4777975,10301,1636570670,503290967,,"['front_left_hip_x', 'front_left_hip_y', 'front_left_knee', 'front_right_hip_x', 'front_right_hip_y', 'front_right_knee', 'rear_left_hip_x', 'rear_left_hip_y', 'rear_left_knee', 'rear_right_hip_x', 'rear_right_hip_y', 'rear_right_knee']",-0.16345959901809692,1.1821013689041138,-1.5954216718673706,0.2165808081626892,0.46523529291152954,-1.7243740558624268,-0.15550744533538818,0.466045618057251,-1.7426098585128784,0.15001308917999268,1.1758346557617188,-1.5814127922058105,-0.3383232355117798,1.6025470495224,1.6309778690338135,-0.12313525378704071,-3.237427234649658,5.84138298034668,1.2614283561706543,-3.3713746070861816,5.97987699508667,-0.242902010679245,1.6923744678497314,1.2709221839904785,-2.916569948196411,-0.2807290256023407,33.759334564208984,-1.6983555555343628,7.943029880523682,-1.1051526069641113,5.003589630126953,6.686986923217773,-1.17008638381958,-2.6175804138183594,-12.680781364440918,39.24360275268555
1636570670.5612054,10302,1636570670,557270871,,"['front_left_hip_x', 'front_left_hip_y', 'front_left_knee', 'front_right_hip_x', 'front_right_hip_y', 'front_right_knee', 'rear_left_hip_x', 'rear_left_hip_y', 'rear_left_knee', 'rear_right_hip_x', 'rear_right_hip_y', 'rear_right_knee']",-0.18563491106033325,1.2648366689682007,-1.4881869554519653,0.2187967300415039,0.5090934634208679,-1.5849895477294922,-0.06020617485046387,0.49589359760284424,-1.5690144300460815,0.13059616088867188,1.264237403869629,-1.4900931119918823,-0.7012399435043335,1.420721411705017,2.705078125,0.22500668466091156,4.20920991897583,-2.1561317443847656,1.943257451057434,5.365304946899414,-3.4515862464904785,-0.3873956799507141,1.7543541193008423,2.1092567443847656,-12.115049362182617,-3.635861873626709,31.003313064575195,1.3437820672988892,17.605924606323242,20.888811111450195,-3.8582072257995605,19.3934383392334,22.7921142578125,-0.26605626940727234,-19.143598556518555,39.1063232421875
1636570670.6092987,10303,1636570670,623270743,,"['front_left_hip_x', 'front_left_hip_y', 'front_left_knee', 'front_right_hip_x', 'front_right_hip_y', 'front_right_knee', 'rear_left_hip_x', 'rear_left_hip_y', 'rear_left_knee', 'rear_right_hip_x', 'rear_right_hip_y', 'rear_right_knee']",-0.24286776781082153,1.4728031158447266,-1.6879080533981323,0.17165684700012207,0.7285758852958679,-1.6781468391418457,-0.10778635740280151,0.7298136949539185,-1.6809790134429932,0.09485769271850586,1.4816615581512451,-1.7143577337265015,0.5943119525909424,1.8358381986618042,-7.8198394775390625,-0.18303683400154114,2.45461368560791,-0.9946437478065491,-0.7939292192459106,2.7615158557891846,-0.5607984066009521,0.7377308011054993,0.5411895513534546,-6.07362699508667,-1.2427057027816772,-6.0517659187316895,-3.090646266937256,-6.914182662963867,-25.703718185424805,52.50990676879883,-6.158176422119141,-6.3439507484436035,12.319707870483398,8.626790046691895,-15.442493438720703,-2.4325945377349854
1636570670.664533,10304,1636570670,686271063,,"['front_left_hip_x', 'front_left_hip_y', 'front_left_knee', 'front_right_hip_x', 'front_right_hip_y', 'front_right_knee', 'rear_left_hip_x', 'rear_left_hip_y', 'rear_left_knee', 'rear_right_hip_x', 'rear_right_hip_y', 'rear_right_knee']",-0.2111942172050476,1.4980742931365967,-2.1249327659606934,0.1853351593017578,0.8925831913948059,-1.7260838747024536,-0.11503034830093384,0.8808678388595581,-1.7036212682724,0.20534873008728027,1.500293254852295,-2.1204631328582764,1.115729570388794,-3.2564806938171387,-4.602509498596191,-0.3668502867221832,2.0643725395202637,0.007925323210656643,-0.7684745788574219,2.1389236450195312,0.21882398426532745,1.3303024768829346,-2.4832582473754883,-5.373579978942871,-4.865092754364014,-12.036738395690918,-1.2389475107192993,7.756937026977539,-21.801294326782227,45.9786262512207,-9.236754417419434,-15.944609642028809,13.055634498596191,4.101808071136475,-10.853328704833984,-1.7625503540039062
1636570670.7260516,10305,1636570670,743270999,,"['front_left_hip_x', 'front_left_hip_y', 'front_left_knee', 'front_right_hip_x', 'front_right_hip_y', 'front_right_knee', 'rear_left_hip_x', 'rear_left_hip_y', 'rear_left_knee', 'rear_right_hip_x', 'rear_right_hip_y', 'rear_right_knee']",-0.13032478094100952,1.0577715635299683,-2.1694180965423584,0.18350881338119507,0.989677369594574,-1.7125816345214844,-0.14237838983535767,0.9742134809494019,-1.6682757139205933,0.3292456865310669,1.0957601070404053,-2.1725387573242188,1.1136562824249268,-9.362957954406738,3.7842092514038086,0.13349811732769012,1.6657512187957764,0.006081320345401764,-0.46117103099823,1.7579550743103027,0.6886245608329773,1.0883121490478516,-8.503854751586914,3.346235752105713,2.0635647773742676,1.7438300848007202,0.31453174352645874,10.891571998596191,-16.54803466796875,40.639678955078125,-17.919265747070312,-7.173192501068115,24.97027587890625,-4.4663286209106445,3.9510927200317383,-0.6812033653259277
1636570670.7949197,10306,1636570670,809270871,,"['front_left_hip_x', 'front_left_hip_y', 'front_left_knee', 'front_right_hip_x', 'front_right_hip_y', 'front_right_knee', 'rear_left_hip_x', 'rear_left_hip_y', 'rear_left_knee', 'rear_right_hip_x', 'rear_right_hip_y', 'rear_right_knee']",-0.07982790470123291,0.5057551860809326,-1.709399700164795,0.16456860303878784,1.0949115753173828,-1.671467661857605,-0.17473310232162476,1.0837197303771973,-1.6301978826522827,0.35403668880462646,0.555353581905365,-1.7717063426971436,0.02369021251797676,-5.811920166015625,7.322680473327637,-0.35369542241096497,1.6689488887786865,0.5678415298461914,-0.6116864681243896,1.7466100454330444,0.5583866238594055,-0.3636050820350647,-5.596571922302246,7.056107997894287,2.1568450927734375,10.567359924316406,-1.338619351387024,11.354059219360352,13.693150520324707,36.028751373291016,-2.393193483352661,-1.1521780490875244,53.76288986206055,-9.30554485321045,14.977409362792969,-0.8440561890602112
1636570670.8452592,10307,1636570670,869270871,,"['front_left_hip_x', 'front_left_hip_y', 'front_left_knee', 'front_right_hip_x', 'front_right_hip_y', 'front_right_knee', 'rear_left_hip_x', 'rear_left_hip_y', 'rear_left_knee', 'rear_right_hip_x', 'rear_right_hip_y', 'rear_right_knee']",-0.1024390459060669,0.5526418685913086,-1.5599805116653442,0.1321224570274353,1.2015745639801025,-1.6064172983169556,-0.23718595504760742,1.2160062789916992,-1.5950441360473633,0.29584991931915283,0.6232008337974548,-1.6237090826034546,0.9565600156784058,2.2476248741149902,-1.5905539989471436,0.438384085893631,2.83113431930542,-1.4936671257019043,-3.619241237640381,3.520927906036377,0.18357619643211365,-1.5457050800323486,1.799966812133789,0.6486150622367859,-2.3776166439056396,-3.1088502407073975,10.281417846679688,-1.9244604110717773,34.69584274291992,10.016737937927246,23.572383880615234,16.931467056274414,17.751340866088867,-10.00209903717041,16.019468307495117,36.51158905029297
