Time,header.seq,header.stamp.secs,header.stamp.nsecs,header.frame_id,pose.x,pose.y,pose.theta,map
1636570667.2066162,17423,1636570667,204110146,map,488.32879638671875,-374.4412536621094,-1.4749767780303955,UT_Campus
1636570667.2646825,17424,1636570667,264463425,map,488.328369140625,-374.4416809082031,-1.4790363311767578,UT_Campus
1636570667.3251755,17425,1636570667,324802637,map,488.3290710449219,-374.44488525390625,-1.4821796417236328,UT_Campus
1636570667.3857067,17426,1636570667,385234594,map,488.3305969238281,-374.4482421875,-1.4826455116271973,UT_Campus
1636570667.4457104,17427,1636570667,445493698,map,488.33447265625,-374.45635986328125,-1.4791351556777954,UT_Campus
1636570667.5264404,17428,1636570667,526205778,map,488.363037109375,-374.471435546875,-1.4561727046966553,UT_Campus
1636570667.5870996,17429,1636570667,586805820,map,488.3829650878906,-374.506591796875,-1.4301064014434814,UT_Campus
1636570667.6474056,17430,1636570667,647060871,map,488.4046936035156,-374.5481872558594,-1.3998786211013794,UT_Campus
1636570667.7077327,17431,1636570667,707391977,map,488.4195556640625,-374.5793762207031,-1.3726744651794434,UT_Campus
1636570667.747885,17432,1636570667,747562885,map,488.43682861328125,-374.618896484375,-1.3311541080474854,UT_Campus
1636570667.8088675,17433,1636570667,808665991,map,488.4624938964844,-374.6599426269531,-1.2826653718948364,UT_Campus
1636570667.8893425,17434,1636570667,889164448,map,488.52716064453125,-374.7071228027344,-1.247030258178711,UT_Campus
1636570667.9497812,17435,1636570667,949407578,map,488.5519104003906,-374.76007080078125,-1.221383810043335,UT_Campus
1636570667.9904423,17436,1636570667,990253448,map,488.56585693359375,-374.81060791015625,-1.200456976890564,UT_Campus
1636570668.0507615,17437,1636570668,50505877,map,488.55438232421875,-374.89080810546875,-1.1635624170303345,UT_Campus
1636570668.1313417,17438,1636570668,130979061,map,488.5638732910156,-374.9394836425781,-1.1372387409210205,UT_Campus
1636570668.1917417,17439,1636570668,191374540,map,488.5760498046875,-375.004638671875,-1.1245689392089844,UT_Campus
1636570668.2518482,17440,1636570668,251631498,map,488.58660888671875,-375.0511779785156,-1.1061820983886719,UT_Campus
1636570668.292666,17441,1636570668,292362213,map,488.5990295410156,-375.0967712402344,-1.0692658424377441,UT_Campus
1636570668.3529508,17442,1636570668,352594137,map,488.57122802734375,-375.1660461425781,-1.0135235786437988,UT_Campus
1636570668.4132671,17443,1636570668,412930727,map,488.5907287597656,-375.2186584472656,-0.9693015217781067,UT_Campus
1636570668.4766736,17444,1636570668,473702192,map,488.6196594238281,-375.2867431640625,-0.9231430292129517,UT_Campus
1636570668.5342853,17445,1636570668,533927202,map,488.68768310546875,-375.326416015625,-0.8625800013542175,UT_Campus
1636570668.5950859,17446,1636570668,594912767,map,488.72235107421875,-375.3710021972656,-0.797805905342102,UT_Campus
1636570668.6554136,17447,1636570668,655152082,map,488.7516784667969,-375.3856201171875,-0.7195093631744385,UT_Campus
1636570668.716354,17448,1636570668,716130972,map,488.8056640625,-375.4223327636719,-0.6482383012771606,UT_Campus
1636570668.7968154,17449,1636570668,796534538,map,488.855712890625,-375.4283752441406,-0.5909514427185059,UT_Campus
1636570668.8370845,17450,1636570668,836703777,map,488.9189147949219,-375.4585266113281,-0.5417460799217224,UT_Campus
1636570668.9179757,17451,1636570668,917766571,map,488.9876708984375,-375.48223876953125,-0.47301697731018066,UT_Campus
1636570668.9581857,17452,1636570668,957931757,map,489.01055908203125,-375.4937438964844,-0.40769046545028687,UT_Campus
1636570669.0194533,17453,1636570669,19075632,map,489.08380126953125,-375.5123291015625,-0.3618370592594147,UT_Campus
1636570669.0797734,17454,1636570669,79441309,map,489.1248474121094,-375.54949951171875,-0.33832839131355286,UT_Campus
1636570669.1398458,17455,1636570669,139691830,map,489.1971130371094,-375.5610046386719,-0.31477832794189453,UT_Campus
1636570669.2410073,17456,1636570669,240820169,map,489.1938781738281,-375.6066589355469,-0.3130229115486145,UT_Campus
1636570669.281519,17457,1636570669,281134367,map,489.24920654296875,-375.6228942871094,-0.29299819469451904,UT_Campus
1636570669.3417192,17458,1636570669,341383934,map,489.3052062988281,-375.6351013183594,-0.2805120348930359,UT_Campus
1636570669.4019222,17459,1636570669,401743412,map,489.3608093261719,-375.654052734375,-0.28142815828323364,UT_Campus
1636570669.4622316,17460,1636570669,461969137,map,489.4033508300781,-375.66778564453125,-0.28450384736061096,UT_Campus
1636570669.5230992,17461,1636570669,522808313,map,489.44091796875,-375.6811828613281,-0.29125136137008667,UT_Campus
1636570669.5833905,17462,1636570669,583128452,map,489.4615173339844,-375.7220458984375,-0.3093053102493286,UT_Campus
1636570669.6435413,17463,1636570669,643370152,map,489.492431640625,-375.7402648925781,-0.3213377594947815,UT_Campus
1636570669.6851788,17464,1636570669,683658600,map,489.5377502441406,-375.77117919921875,-0.3439507484436035,UT_Campus
1636570669.7641656,17465,1636570669,763981581,map,489.5737609863281,-375.7959899902344,-0.365256667137146,UT_Campus
1636570669.8245156,17466,1636570669,824353695,map,489.6151428222656,-375.82427978515625,-0.37469854950904846,UT_Campus
1636570669.8855104,17467,1636570669,884609222,map,489.65728759765625,-375.8498229980469,-0.36840638518333435,UT_Campus
1636570669.9278576,17468,1636570669,927576065,map,489.69561767578125,-375.8713073730469,-0.363218754529953,UT_Campus
1636570670.008972,17469,1636570670,8628845,map,489.720703125,-375.877685546875,-0.3753911554813385,UT_Campus
1636570670.0491526,17470,1636570670,48801899,map,489.7691345214844,-375.89727783203125,-0.3723292648792267,UT_Campus
1636570670.1293066,17471,1636570670,129138470,map,489.8133544921875,-375.9158935546875,-0.368619829416275,UT_Campus
1636570670.1897411,17472,1636570670,189459085,map,489.87725830078125,-375.93994140625,-0.37036898732185364,UT_Campus
1636570670.2499576,17473,1636570670,249684572,map,489.9497375488281,-375.9639587402344,-0.36958545446395874,UT_Campus
1636570670.311204,17474,1636570670,310362816,map,490.0256652832031,-375.9906921386719,-0.36694079637527466,UT_Campus
1636570670.3708572,17475,1636570670,370630264,map,490.111572265625,-376.0171203613281,-0.3795413672924042,UT_Campus
1636570670.4312928,17476,1636570670,431066513,map,490.17413330078125,-376.03887939453125,-0.38199204206466675,UT_Campus
1636570670.4915318,17477,1636570670,491341352,map,490.23944091796875,-376.0605163574219,-0.379459410905838,UT_Campus
1636570670.5718071,17478,1636570670,571650982,map,490.3079833984375,-376.0841064453125,-0.3855692446231842,UT_Campus
1636570670.6125014,17479,1636570670,612340689,map,490.3990783691406,-376.1156005859375,-0.4059047996997833,UT_Campus
1636570670.6728523,17480,1636570670,672570467,map,490.4831237792969,-376.1988525390625,-0.4306515157222748,UT_Campus
1636570670.733077,17481,1636570670,732883453,map,490.53741455078125,-376.2164611816406,-0.43739280104637146,UT_Campus
1636570670.813656,17482,1636570670,813311577,map,490.5934143066406,-376.2373352050781,-0.4645237624645233,UT_Campus
1636570670.8539698,17483,1636570670,853489637,map,490.6552429199219,-376.26531982421875,-0.501164436340332,UT_Campus
1636570670.934553,17484,1636570670,934246778,map,490.7156066894531,-376.29400634765625,-0.5274181962013245,UT_Campus
1636570670.9746644,17485,1636570670,974406719,map,490.736083984375,-376.3100891113281,-0.5777762532234192,UT_Campus
1636570671.034896,17486,1636570671,34739494,map,490.7896423339844,-376.3450012207031,-0.6154440641403198,UT_Campus
1636570671.0955684,17487,1636570671,95391035,map,490.8421630859375,-376.382568359375,-0.647156298160553,UT_Campus
1636570671.1558776,17488,1636570671,155616045,map,490.9404296875,-376.4612121582031,-0.7079160213470459,UT_Campus
1636570671.216218,17489,1636570671,215943336,map,491.0115966796875,-376.5248718261719,-0.7436915040016174,UT_Campus
1636570671.2964644,17490,1636570671,296256542,map,491.0633544921875,-376.572265625,-0.7711873054504395,UT_Campus
1636570671.3372993,17491,1636570671,336927176,map,491.120849609375,-376.6324157714844,-0.8103888034820557,UT_Campus
1636570671.3973758,17492,1636570671,397228956,map,491.1312255859375,-376.6676025390625,-0.8354102373123169,UT_Campus
1636570671.477861,17493,1636570671,477556467,map,491.185546875,-376.7356262207031,-0.8695022463798523,UT_Campus
1636570671.5387857,17494,1636570671,538541317,map,491.2491455078125,-376.8224792480469,-0.9047574400901794,UT_Campus
1636570671.6192102,17495,1636570671,618933678,map,491.3057861328125,-376.8738708496094,-0.9522895812988281,UT_Campus
1636570671.659342,17496,1636570671,659096956,map,491.35015869140625,-376.95318603515625,-0.9951174259185791,UT_Campus
1636570671.7403076,17497,1636570671,740078926,map,491.37603759765625,-377.0052795410156,-1.0202593803405762,UT_Campus
1636570671.7814648,17498,1636570671,780262947,map,491.3609924316406,-377.03143310546875,-1.0394155979156494,UT_Campus
1636570671.8408844,17499,1636570671,840653181,map,491.391845703125,-377.1033935546875,-1.0555673837661743,UT_Campus
1636570671.9212549,17500,1636570671,921071053,map,491.4207458496094,-377.153564453125,-1.06858491897583,UT_Campus
1636570671.9614072,17501,1636570671,961219549,map,491.450439453125,-377.2083740234375,-1.098315954208374,UT_Campus
1636570672.022352,17502,1636570672,22006512,map,491.47735595703125,-377.266357421875,-1.1400291919708252,UT_Campus
1636570672.082641,17503,1636570672,82295656,map,491.4480285644531,-377.2902526855469,-1.1711450815200806,UT_Campus
1636570672.142887,17504,1636570672,142621279,map,491.4765625,-377.3492736816406,-1.1928861141204834,UT_Campus
1636570672.2030926,17505,1636570672,202867031,map,491.5069274902344,-377.39617919921875,-1.2114546298980713,UT_Campus
1636570672.2638335,17506,1636570672,263646364,map,491.5235900878906,-377.4226989746094,-1.2197725772857666,UT_Campus
1636570672.3240988,17507,1636570672,323954582,map,491.5516662597656,-377.349609375,-1.2007768154144287,UT_Campus
1636570672.384344,17508,1636570672,384163141,map,491.5790100097656,-377.3795166015625,-1.213913917541504,UT_Campus
1636570672.4447327,17509,1636570672,444507837,map,491.602783203125,-377.4093933105469,-1.2345373630523682,UT_Campus
1636570672.5050647,17510,1636570672,504770517,map,491.6233215332031,-377.43896484375,-1.2590765953063965,UT_Campus
1636570672.5453851,17511,1636570672,545080662,map,491.6388244628906,-377.47454833984375,-1.2957921028137207,UT_Campus
1636570672.6261947,17512,1636570672,625878811,map,491.6504821777344,-377.5188293457031,-1.3406963348388672,UT_Campus
1636570672.6661832,17513,1636570672,666026831,map,491.65826416015625,-377.59735107421875,-1.3911595344543457,UT_Campus
1636570672.7265778,17514,1636570672,726377010,map,491.6611328125,-377.6551208496094,-1.4192149639129639,UT_Campus
1636570672.8072388,17515,1636570672,807087421,map,491.6563415527344,-377.7086486816406,-1.4518661499023438,UT_Campus
1636570672.8674393,17516,1636570672,867310762,map,491.6538391113281,-377.76348876953125,-1.4934076070785522,UT_Campus
1636570672.9482825,17517,1636570672,947944880,map,491.6407775878906,-377.8160095214844,-1.5172401666641235,UT_Campus
1636570673.0285065,17518,1636570673,28310776,map,491.6225891113281,-377.8962097167969,-1.5610398054122925,UT_Campus
1636570673.068732,17519,1636570673,68468809,map,491.6083068847656,-377.9622497558594,-1.606187105178833,UT_Campus
1636570673.1294475,17520,1636570673,129186153,map,491.5912170410156,-378.01824951171875,-1.6431697607040405,UT_Campus
1636570673.1898203,17521,1636570673,189444780,map,491.5376281738281,-378.0361022949219,-1.6761395931243896,UT_Campus
1636570673.2500334,17522,1636570673,249770880,map,491.52984619140625,-378.0794372558594,-1.6968835592269897,UT_Campus
1636570673.3309705,17523,1636570673,330663681,map,491.5245361328125,-378.13348388671875,-1.717276692390442,UT_Campus
1636570673.3911939,17524,1636570673,390914917,map,491.5358581542969,-378.181884765625,-1.7381576299667358,UT_Campus
1636570673.4313788,17525,1636570673,431199312,map,491.537353515625,-378.2226867675781,-1.769588589668274,UT_Campus
1636570673.4917958,17526,1636570673,491538763,map,491.53985595703125,-378.2698974609375,-1.8088876008987427,UT_Campus
1636570673.5524287,17527,1636570673,552159548,map,491.5445861816406,-378.32684326171875,-1.8464934825897217,UT_Campus
1636570673.6126952,17528,1636570673,612489939,map,491.5584716796875,-378.35833740234375,-1.8587039709091187,UT_Campus
1636570673.6730824,17529,1636570673,672747850,map,491.5606689453125,-378.4083251953125,-1.8735638856887817,UT_Campus
1636570673.7332904,17530,1636570673,733148098,map,491.5596923828125,-378.45025634765625,-1.8938626050949097,UT_Campus
1636570673.7935505,17531,1636570673,793389559,map,491.5557556152344,-378.4932861328125,-1.9195318222045898,UT_Campus
1636570673.856719,17532,1636570673,856259108,map,491.54840087890625,-378.5319519042969,-1.9421422481536865,UT_Campus
1636570673.9372962,17533,1636570673,936855555,map,491.57366943359375,-378.512451171875,-1.9437977075576782,UT_Campus
1636570673.9972856,17534,1636570673,997077465,map,491.5550537109375,-378.54876708984375,-1.958099126815796,UT_Campus
1636570674.0577097,17535,1636570674,57514906,map,491.53668212890625,-378.5808410644531,-1.9749808311462402,UT_Campus
1636570674.1180897,17536,1636570674,117880106,map,491.5175476074219,-378.61553955078125,-1.9939745664596558,UT_Campus
1636570674.178287,17537,1636570674,178103209,map,491.4961853027344,-378.65338134765625,-2.011937141418457,UT_Campus
1636570674.2416172,17538,1636570674,241387367,map,491.4708251953125,-378.7042541503906,-2.0288705825805664,UT_Campus
1636570674.3018875,17539,1636570674,301613569,map,491.4170837402344,-378.7649230957031,-2.0287318229675293,UT_Campus
1636570674.3621628,17540,1636570674,361921549,map,491.39111328125,-378.8096923828125,-2.0194716453552246,UT_Campus
1636570674.4224539,17541,1636570674,422184944,map,491.363037109375,-378.8578186035156,-2.018660068511963,UT_Campus
1636570674.4830742,17542,1636570674,482588291,map,491.328125,-378.91583251953125,-2.0199341773986816,UT_Campus
1636570674.5435061,17543,1636570674,543282986,map,491.2874755859375,-378.9822692871094,-2.0237226486206055,UT_Campus
1636570674.603712,17544,1636570674,603498936,map,491.26593017578125,-379.04693603515625,-2.0162720680236816,UT_Campus
1636570674.6639497,17545,1636570674,663788319,map,491.229736328125,-379.111083984375,-2.0164198875427246,UT_Campus
1636570674.7243395,17546,1636570674,724130630,map,491.2019958496094,-379.16607666015625,-2.0133895874023438,UT_Campus
1636570674.7847788,17547,1636570674,784379244,map,491.1675109863281,-379.2376708984375,-2.014547348022461,UT_Campus
1636570674.845916,17548,1636570674,845075369,map,491.1282043457031,-379.3220520019531,-2.0199718475341797,UT_Campus
1636570674.8857198,17549,1636570674,885249615,map,491.151611328125,-379.4111022949219,-2.0094265937805176,UT_Campus
1636570674.9658358,17550,1636570674,965647697,map,491.1250305175781,-379.47723388671875,-2.004312038421631,UT_Campus
1636570675.026408,17551,1636570675,25906086,map,491.0946350097656,-379.5490417480469,-2.0077896118164062,UT_Campus
1636570675.089424,17552,1636570675,89198112,map,491.0621032714844,-379.6288146972656,-2.007802724838257,UT_Campus
1636570675.1295984,17553,1636570675,129450560,map,491.04248046875,-379.70489501953125,-2.0030550956726074,UT_Campus
1636570675.1898408,17554,1636570675,189688206,map,491.01092529296875,-379.77008056640625,-2.009136438369751,UT_Campus
1636570675.270721,17555,1636570675,270489216,map,490.97857666015625,-379.8431091308594,-2.010929584503174,UT_Campus
1636570675.3309531,17556,1636570675,330814123,map,490.93048095703125,-379.9335021972656,-1.9929510354995728,UT_Campus
1636570675.411512,17557,1636570675,411125422,map,490.8905334472656,-380.01824951171875,-1.9851818084716797,UT_Campus
1636570675.4519866,17558,1636570675,451769352,map,490.85906982421875,-380.0958557128906,-1.9812434911727905,UT_Campus
1636570675.5121496,17559,1636570675,511984348,map,490.84661865234375,-380.0888671875,-1.9570919275283813,UT_Campus
1636570675.572529,17560,1636570675,572330236,map,490.8268127441406,-380.1521301269531,-1.939115285873413,UT_Campus
1636570675.6328125,17561,1636570675,632650137,map,490.80645751953125,-380.2054748535156,-1.9313480854034424,UT_Campus
1636570675.7132013,17562,1636570675,712953568,map,490.77581787109375,-380.28076171875,-1.9179786443710327,UT_Campus
1636570675.7552223,17563,1636570675,753599882,map,490.7474060058594,-380.3469543457031,-1.9060603380203247,UT_Campus
1636570675.815806,17564,1636570675,813988924,map,490.71942138671875,-380.4662170410156,-1.8956609964370728,UT_Campus
1636570675.874649,17565,1636570675,874364138,map,490.69964599609375,-380.5267028808594,-1.8858877420425415,UT_Campus
1636570675.955265,17566,1636570675,954757929,map,490.6816711425781,-380.5973205566406,-1.873349905014038,UT_Campus
1636570675.9951022,17567,1636570675,994921684,map,490.6563720703125,-380.7029724121094,-1.8576879501342773,UT_Campus
1636570676.0759666,17568,1636570676,75777769,map,490.6427001953125,-380.7673645019531,-1.8520153760910034,UT_Campus
1636570676.116347,17569,1636570676,115936995,map,490.615478515625,-380.7705078125,-1.8463197946548462,UT_Campus
1636570676.1769438,17570,1636570676,176353693,map,490.6096496582031,-380.8324890136719,-1.8313050270080566,UT_Campus
1636570676.2368805,17571,1636570676,236696959,map,490.6098937988281,-380.8818664550781,-1.823790431022644,UT_Campus
1636570676.2971032,17572,1636570676,296912432,map,490.6112365722656,-380.9298400878906,-1.8147364854812622,UT_Campus
1636570676.3782196,17573,1636570676,377797127,map,490.611572265625,-380.9769592285156,-1.7952744960784912,UT_Campus
1636570676.4218376,17574,1636570676,421275616,map,490.5895690917969,-381.02301025390625,-1.785601019859314,UT_Campus
1636570676.4822075,17575,1636570676,481914043,map,490.5879211425781,-381.0753173828125,-1.7726327180862427,UT_Campus
1636570676.5425303,17576,1636570676,542277813,map,490.58380126953125,-381.11737060546875,-1.7614408731460571,UT_Campus
1636570676.6026933,17577,1636570676,602460384,map,490.57843017578125,-381.1664123535156,-1.753814697265625,UT_Campus
1636570676.6831474,17578,1636570676,682881117,map,490.56890869140625,-381.2261962890625,-1.731481671333313,UT_Campus
1636570676.743876,17579,1636570676,743578672,map,490.55670166015625,-381.2764892578125,-1.7028244733810425,UT_Campus
1636570676.8040395,17580,1636570676,803809643,map,490.5349426269531,-381.3359069824219,-1.668404459953308,UT_Campus
1636570676.8644872,17581,1636570676,864305258,map,490.5196533203125,-381.3843688964844,-1.6527711153030396,UT_Campus
1636570676.9247797,17582,1636570676,924524784,map,490.4967346191406,-381.452880859375,-1.6392275094985962,UT_Campus
1636570676.9850767,17583,1636570676,984836817,map,490.4762878417969,-381.51971435546875,-1.6197458505630493,UT_Campus
1636570677.045841,17584,1636570677,45579910,map,490.46282958984375,-381.5808410644531,-1.5965179204940796,UT_Campus
1636570677.106137,17585,1636570677,105975389,map,490.4537658691406,-381.6099853515625,-1.5593514442443848,UT_Campus
1636570677.1667266,17586,1636570677,166462183,map,490.44952392578125,-381.6786804199219,-1.5318188667297363,UT_Campus
1636570677.2268755,17587,1636570677,226698875,map,490.44500732421875,-381.7501220703125,-1.5108121633529663,UT_Campus
1636570677.28938,17588,1636570677,289104939,map,490.4450988769531,-381.8194580078125,-1.498893141746521,UT_Campus
1636570677.3294168,17589,1636570677,329235315,map,490.4007568359375,-381.9036560058594,-1.4920568466186523,UT_Campus
1636570677.4098577,17590,1636570677,409642220,map,490.4001770019531,-381.941162109375,-1.4826059341430664,UT_Campus
1636570677.470206,17591,1636570677,470002651,map,490.3939514160156,-381.9866027832031,-1.4656376838684082,UT_Campus
1636570677.5105145,17592,1636570677,510181665,map,490.3854064941406,-382.0482482910156,-1.430495023727417,UT_Campus
1636570677.5915494,17593,1636570677,591281176,map,490.38128662109375,-382.1041259765625,-1.3891913890838623,UT_Campus
1636570677.632109,17594,1636570677,631916046,map,490.35211181640625,-382.1235656738281,-1.3740243911743164,UT_Campus
1636570677.7125762,17595,1636570677,712383032,map,490.3527526855469,-382.1632385253906,-1.3775057792663574,UT_Campus
1636570677.7730544,17596,1636570677,772709370,map,490.36322021484375,-382.2034606933594,-1.3608458042144775,UT_Campus
1636570677.8131223,17597,1636570677,812870502,map,490.38702392578125,-382.2710266113281,-1.308237075805664,UT_Campus
1636570677.8738892,17598,1636570677,873660088,map,490.40631103515625,-382.3179016113281,-1.2677404880523682,UT_Campus
1636570677.9543073,17599,1636570677,954037428,map,490.4938049316406,-382.3402404785156,-1.212607741355896,UT_Campus
1636570678.015428,17600,1636570678,14365673,map,490.5333557128906,-382.40155029296875,-1.1627402305603027,UT_Campus
1636570678.0954216,17601,1636570678,95239401,map,490.5723876953125,-382.46356201171875,-1.1283087730407715,UT_Campus
1636570678.1356227,17602,1636570678,135424614,map,490.59283447265625,-382.5475769042969,-1.1089986562728882,UT_Campus
1636570678.196825,17603,1636570678,196657658,map,490.6263427734375,-382.6026306152344,-1.1005761623382568,UT_Campus
1636570678.2572896,17604,1636570678,257067204,map,490.6617431640625,-382.661376953125,-1.0963973999023438,UT_Campus
1636570678.3177693,17605,1636570678,317294121,map,490.6865539550781,-382.72088623046875,-1.0930366516113281,UT_Campus
1636570678.3989835,17606,1636570678,398728371,map,490.7118225097656,-382.7783508300781,-1.0960192680358887,UT_Campus
1636570678.439141,17607,1636570678,438903332,map,490.75238037109375,-382.90191650390625,-1.1107171773910522,UT_Campus
1636570678.4994977,17608,1636570678,499241114,map,490.76678466796875,-382.9388122558594,-1.108651876449585,UT_Campus
1636570678.5597246,17609,1636570678,559550524,map,490.7853088378906,-382.9772644042969,-1.1015385389328003,UT_Campus
1636570678.6201637,17610,1636570678,619793653,map,490.8034362792969,-383.0125427246094,-1.0989410877227783,UT_Campus
1636570678.680901,17611,1636570678,680503130,map,490.8221740722656,-383.0551452636719,-1.1022424697875977,UT_Campus
1636570678.7409708,17612,1636570678,740760326,map,490.8037109375,-383.0372009277344,-1.1121721267700195,UT_Campus
1636570678.8012657,17613,1636570678,801068544,map,490.819580078125,-383.07830810546875,-1.1137863397598267,UT_Campus
1636570678.861702,17614,1636570678,861375093,map,490.83489990234375,-383.1120300292969,-1.1181360483169556,UT_Campus
1636570678.921992,17615,1636570678,921616793,map,490.8420715332031,-383.1400146484375,-1.1224396228790283,UT_Campus
1636570678.9822316,17616,1636570678,981956005,map,490.8536682128906,-383.1690979003906,-1.128933072090149,UT_Campus
1636570679.0424423,17617,1636570679,42182922,map,490.8720397949219,-383.2054138183594,-1.1400415897369385,UT_Campus
1636570679.102972,17618,1636570679,102804422,map,490.88421630859375,-383.23095703125,-1.1420207023620605,UT_Campus
1636570679.1632328,17619,1636570679,163070202,map,490.8896789550781,-383.2424011230469,-1.1417574882507324,UT_Campus
1636570679.2237396,17620,1636570679,223324299,map,490.90203857421875,-383.2763671875,-1.1405305862426758,UT_Campus
1636570679.28399,17621,1636570679,283719778,map,490.9183044433594,-383.3268737792969,-1.1378436088562012,UT_Campus
1636570679.3642526,17622,1636570679,364103317,map,490.9423522949219,-383.40484619140625,-1.1387782096862793,UT_Campus
1636570679.4245906,17623,1636570679,424330950,map,490.95758056640625,-383.4635009765625,-1.1411442756652832,UT_Campus
1636570679.4904947,17624,1636570679,486873388,map,490.9723205566406,-383.5191650390625,-1.1428501605987549,UT_Campus
1636570679.5475104,17625,1636570679,547112465,map,490.98309326171875,-383.5738525390625,-1.1483979225158691,UT_Campus
1636570679.5877502,17626,1636570679,587370396,map,490.9989318847656,-383.6263122558594,-1.148172378540039,UT_Campus
1636570679.6680698,17627,1636570679,667851686,map,491.0193176269531,-383.685302734375,-1.1617511510849,UT_Campus
1636570679.7283409,17628,1636570679,728106499,map,491.0400085449219,-383.73687744140625,-1.1660487651824951,UT_Campus
1636570679.7889855,17629,1636570679,788814068,map,491.060546875,-383.7960205078125,-1.1746493577957153,UT_Campus
1636570679.829236,17630,1636570679,828975201,map,491.0791931152344,-383.85430908203125,-1.1876192092895508,UT_Campus
1636570679.8894653,17631,1636570679,889292479,map,491.04595947265625,-383.920166015625,-1.212782859802246,UT_Campus
1636570679.9700043,17632,1636570679,969738245,map,491.07135009765625,-383.9974670410156,-1.2193751335144043,UT_Campus
1636570680.0102227,17633,1636570680,9916782,map,491.0949401855469,-384.0751037597656,-1.2371602058410645,UT_Campus
1636570680.0910265,17634,1636570680,90855837,map,491.1146545410156,-384.13848876953125,-1.2501749992370605,UT_Campus
1636570680.1312423,17635,1636570680,131005287,map,491.1129150390625,-384.2164001464844,-1.2635986804962158,UT_Campus
1636570680.1915815,17636,1636570680,191368818,map,491.1337890625,-384.283447265625,-1.2737503051757812,UT_Campus
1636570680.2718797,17637,1636570680,271704435,map,491.1599426269531,-384.3661804199219,-1.2854795455932617,UT_Campus
1636570680.312659,17638,1636570680,312340260,map,491.18719482421875,-384.4479064941406,-1.2901651859283447,UT_Campus
1636570680.3930137,17639,1636570680,392824888,map,491.2327880859375,-384.4966735839844,-1.2884272336959839,UT_Campus
1636570680.45347,17640,1636570680,453083515,map,491.2561950683594,-384.5638122558594,-1.2965617179870605,UT_Campus
1636570680.49352,17641,1636570680,493354321,map,491.28570556640625,-384.64453125,-1.2957570552825928,UT_Campus
1636570680.5538967,17642,1636570680,553577423,map,491.3052673339844,-384.6965026855469,-1.291122555732727,UT_Campus
1636570680.6407125,17643,1636570680,640305281,map,491.3399658203125,-384.736328125,-1.2933812141418457,UT_Campus
1636570680.6811457,17644,1636570680,680704355,map,491.3572692871094,-384.7958984375,-1.2971704006195068,UT_Campus
1636570680.7613792,17645,1636570680,761062860,map,491.3727722167969,-384.8372497558594,-1.2933738231658936,UT_Campus
1636570680.8015747,17646,1636570680,801378965,map,491.39495849609375,-384.9029235839844,-1.2963310480117798,UT_Campus
1636570680.8625073,17647,1636570680,862066507,map,491.4206237792969,-384.97393798828125,-1.3034113645553589,UT_Campus
1636570680.9239705,17648,1636570680,923115730,map,491.4448547363281,-385.0357360839844,-1.293274998664856,UT_Campus
1636570681.003824,17649,1636570681,3554583,map,491.4134216308594,-385.0649719238281,-1.2834382057189941,UT_Campus
1636570681.063947,17650,1636570681,63773870,map,491.4339294433594,-385.1424255371094,-1.2842942476272583,UT_Campus
1636570681.1244519,17651,1636570681,124112606,map,491.4571228027344,-385.2325439453125,-1.2867358922958374,UT_Campus
1636570681.1863787,17652,1636570681,186204672,map,491.47711181640625,-385.31378173828125,-1.2879741191864014,UT_Campus
1636570681.247179,17653,1636570681,246813536,map,491.449462890625,-385.4349060058594,-1.294494867324829,UT_Campus
1636570681.3075564,17654,1636570681,307292700,map,491.4667663574219,-385.50531005859375,-1.2926247119903564,UT_Campus
1636570681.3677223,17655,1636570681,367543221,map,491.489990234375,-385.5876770019531,-1.2934012413024902,UT_Campus
1636570681.4285421,17656,1636570681,428290606,map,491.5113830566406,-385.6520690917969,-1.2979092597961426,UT_Campus
1636570681.508876,17657,1636570681,508680582,map,491.5438537597656,-385.74896240234375,-1.2944116592407227,UT_Campus
1636570681.5691621,17658,1636570681,568923950,map,491.5712890625,-385.8240661621094,-1.2882649898529053,UT_Campus
1636570681.6098342,17659,1636570681,609590054,map,491.596435546875,-385.8841247558594,-1.290470838546753,UT_Campus
1636570681.6703646,17660,1636570681,670044899,map,491.59918212890625,-385.88177490234375,-1.288771390914917,UT_Campus
1636570681.7507918,17661,1636570681,750501156,map,491.6291809082031,-385.9315185546875,-1.2860487699508667,UT_Campus
1636570681.7909932,17662,1636570681,790746689,map,491.6571350097656,-385.9806213378906,-1.2897123098373413,UT_Campus
1636570681.871302,17663,1636570681,871069670,map,491.6761779785156,-386.014404296875,-1.2941585779190063,UT_Campus
1636570681.9120524,17664,1636570681,911670685,map,491.69488525390625,-386.0542907714844,-1.2954964637756348,UT_Campus
1636570681.972852,17665,1636570681,971916676,map,491.6774597167969,-386.07281494140625,-1.2928154468536377,UT_Campus
1636570682.032533,17666,1636570682,32289267,map,491.6981201171875,-386.1252136230469,-1.2925443649291992,UT_Campus
1636570682.092954,17667,1636570682,92764854,map,491.72515869140625,-386.1980895996094,-1.2914152145385742,UT_Campus
1636570682.1534767,17668,1636570682,153003454,map,491.7459716796875,-386.25689697265625,-1.290092945098877,UT_Campus
1636570682.2198248,17669,1636570682,219412565,map,491.76226806640625,-386.3099670410156,-1.2880465984344482,UT_Campus
1636570682.2799103,17670,1636570682,279638767,map,491.75372314453125,-386.3802490234375,-1.2874329090118408,UT_Campus
1636570682.3402698,17671,1636570682,340015888,map,491.7651672363281,-386.4317321777344,-1.288986086845398,UT_Campus
1636570682.400626,17672,1636570682,400456190,map,491.7760009765625,-386.48974609375,-1.288503885269165,UT_Campus
1636570682.4609456,17673,1636570682,460685730,map,491.78704833984375,-386.5606689453125,-1.2892327308654785,UT_Campus
1636570682.5421758,17674,1636570682,541925430,map,491.77447509765625,-386.5987854003906,-1.294226884841919,UT_Campus
1636570682.5827734,17675,1636570682,582070589,map,491.7846374511719,-386.6725769042969,-1.296349048614502,UT_Campus
1636570682.642911,17676,1636570682,642671347,map,491.79144287109375,-386.7293701171875,-1.2980660200119019,UT_Campus
1636570682.70335,17677,1636570682,703130484,map,491.8016052246094,-386.784423828125,-1.2963316440582275,UT_Campus
1636570682.7635336,17678,1636570682,763365030,map,491.8124694824219,-386.8414306640625,-1.2953099012374878,UT_Campus
1636570682.8246758,17679,1636570682,824441195,map,491.8267822265625,-386.913330078125,-1.2970781326293945,UT_Campus
1636570682.8861086,17680,1636570682,884667873,map,491.84967041015625,-386.9734802246094,-1.3062071800231934,UT_Campus
1636570682.9453835,17681,1636570682,945024252,map,491.86810302734375,-387.0304870605469,-1.298631191253662,UT_Campus
1636570683.0056098,17682,1636570683,5373240,map,491.8815002441406,-387.0786437988281,-1.2928760051727295,UT_Campus
1636570683.0863035,17683,1636570683,85651875,map,491.8945007324219,-387.1217041015625,-1.2941036224365234,UT_Campus
1636570683.1265187,17684,1636570683,126280308,map,491.90911865234375,-387.1677551269531,-1.2983379364013672,UT_Campus
1636570683.1665955,17685,1636570683,166445255,map,491.9127197265625,-387.2339172363281,-1.3007489442825317,UT_Campus
1636570683.2472122,17686,1636570683,246861219,map,491.9277038574219,-387.28509521484375,-1.2964065074920654,UT_Campus
1636570683.3074825,17687,1636570683,307257414,map,491.9430847167969,-387.336669921875,-1.3007413148880005,UT_Campus
1636570683.3676655,17688,1636570683,367492437,map,491.9612731933594,-387.39019775390625,-1.3059873580932617,UT_Campus
1636570683.4490192,17689,1636570683,448713541,map,491.9785461425781,-387.4339904785156,-1.3041374683380127,UT_Campus
1636570683.5095494,17690,1636570683,509101868,map,491.9788818359375,-387.4617919921875,-1.2945679426193237,UT_Campus
1636570683.5695946,17691,1636570683,569357157,map,492.0027160644531,-387.5146484375,-1.2863576412200928,UT_Campus
1636570683.6098921,17692,1636570683,609665394,map,492.02886962890625,-387.5721435546875,-1.27113676071167,UT_Campus
1636570683.6917524,17693,1636570683,690051556,map,492.0556335449219,-387.6279296875,-1.257872462272644,UT_Campus
1636570683.7517047,17694,1636570683,751503468,map,492.07568359375,-387.67529296875,-1.2481480836868286,UT_Campus
1636570683.8121574,17695,1636570683,811810970,map,492.0895080566406,-387.7368469238281,-1.2327852249145508,UT_Campus
1636570683.8525567,17696,1636570683,851978064,map,492.109619140625,-387.7934875488281,-1.2185754776000977,UT_Campus
1636570683.9326708,17697,1636570683,932469368,map,492.1292419433594,-387.8585510253906,-1.2028121948242188,UT_Campus
1636570683.9934492,17698,1636570683,992696285,map,492.1551513671875,-387.9425964355469,-1.1834688186645508,UT_Campus
1636570684.0339983,17699,1636570684,33448458,map,492.1738586425781,-388.0062561035156,-1.1692605018615723,UT_Campus
1636570684.1143212,17700,1636570684,113889694,map,492.18353271484375,-388.0546875,-1.1549186706542969,UT_Campus
1636570684.1574135,17701,1636570684,157148600,map,492.2058410644531,-388.1139831542969,-1.1356422901153564,UT_Campus
1636570684.2179623,17702,1636570684,217473745,map,492.2287292480469,-388.1733703613281,-1.1135412454605103,UT_Campus
1636570684.2780144,17703,1636570684,277726650,map,492.2563171386719,-388.2391662597656,-1.094369649887085,UT_Campus
1636570684.338566,17704,1636570684,338349342,map,492.2912292480469,-388.317138671875,-1.082045555114746,UT_Campus
1636570684.3988361,17705,1636570684,398593664,map,492.3158874511719,-388.37493896484375,-1.0616052150726318,UT_Campus
1636570684.45914,17706,1636570684,458933353,map,492.3405456542969,-388.4132385253906,-1.045179843902588,UT_Campus
1636570684.5196548,17707,1636570684,519262075,map,492.37078857421875,-388.45330810546875,-1.0313624143600464,UT_Campus
1636570684.5797806,17708,1636570684,579503298,map,492.3941345214844,-388.48016357421875,-1.023398995399475,UT_Campus
1636570684.6676884,17709,1636570684,667488575,map,492.4058837890625,-388.50787353515625,-1.0016050338745117,UT_Campus
1636570684.7280588,17710,1636570684,727803946,map,492.4466247558594,-388.55419921875,-0.9718621373176575,UT_Campus
1636570684.7882311,17711,1636570684,788060427,map,492.47369384765625,-388.5867614746094,-0.9471895694732666,UT_Campus
1636570684.8686934,17712,1636570684,868489981,map,492.502685546875,-388.61871337890625,-0.9335317015647888,UT_Campus
1636570684.929465,17713,1636570684,929231405,map,492.5237731933594,-388.64837646484375,-0.9216099977493286,UT_Campus
1636570684.9697223,17714,1636570684,969399691,map,492.532958984375,-388.672119140625,-0.9113050699234009,UT_Campus
1636570685.0299106,17715,1636570685,29750586,map,492.54364013671875,-388.69427490234375,-0.8953837156295776,UT_Campus
1636570685.1104343,17716,1636570685,110072613,map,492.555908203125,-388.7200012207031,-0.8706028461456299,UT_Campus
1636570685.150948,17717,1636570685,150408983,map,492.5691223144531,-388.7554931640625,-0.8391345739364624,UT_Campus
1636570685.2314942,17718,1636570685,231232643,map,492.5859069824219,-388.804931640625,-0.8143023252487183,UT_Campus
1636570685.2917085,17719,1636570685,291480064,map,492.600830078125,-388.8460998535156,-0.7902796864509583,UT_Campus
1636570685.3320396,17720,1636570685,331776619,map,492.6206970214844,-388.8826599121094,-0.7721339464187622,UT_Campus
1636570685.3921983,17721,1636570685,392012596,map,492.64776611328125,-388.9209289550781,-0.7482849359512329,UT_Campus
1636570685.4533994,17722,1636570685,453188419,map,492.68646240234375,-388.9613952636719,-0.7222192883491516,UT_Campus
1636570685.534037,17723,1636570685,533782482,map,492.7031555175781,-388.98828125,-0.7059388160705566,UT_Campus
1636570685.5943317,17724,1636570685,594005585,map,492.76239013671875,-389.03460693359375,-0.6858568787574768,UT_Campus
1636570685.634567,17725,1636570685,634333849,map,492.8161926269531,-389.067138671875,-0.6610468626022339,UT_Campus
1636570685.6947155,17726,1636570685,694557667,map,492.85247802734375,-389.08380126953125,-0.6456308364868164,UT_Campus
1636570685.7766426,17727,1636570685,776390791,map,492.87603759765625,-389.1289367675781,-0.6305407881736755,UT_Campus
1636570685.8169937,17728,1636570685,816717148,map,492.9480895996094,-389.16119384765625,-0.6005648374557495,UT_Campus
1636570685.897287,17729,1636570685,897021055,map,492.9959411621094,-389.18511962890625,-0.5791528224945068,UT_Campus
1636570685.9374652,17730,1636570685,937310219,map,493.0496520996094,-389.2069091796875,-0.5589032769203186,UT_Campus
1636570685.9978101,17731,1636570685,997535229,map,493.104736328125,-389.2274475097656,-0.5351370573043823,UT_Campus
1636570686.058739,17732,1636570686,58483601,map,493.1585388183594,-389.2458190917969,-0.5104803442955017,UT_Campus
1636570686.1189501,17733,1636570686,118747473,map,493.2554626464844,-389.26043701171875,-0.4780628979206085,UT_Campus
1636570686.179295,17734,1636570686,178986788,map,493.3419189453125,-389.292236328125,-0.4510785937309265,UT_Campus
1636570686.2395315,17735,1636570686,239379168,map,493.4029235839844,-389.3119201660156,-0.437675416469574,UT_Campus
1636570686.2998536,17736,1636570686,299605846,map,493.45855712890625,-389.32879638671875,-0.42827653884887695,UT_Campus
1636570686.3613706,17737,1636570686,361141205,map,493.5094299316406,-389.34423828125,-0.4302610754966736,UT_Campus
1636570686.4217834,17738,1636570686,421494246,map,493.5506591796875,-389.407958984375,-0.44893693923950195,UT_Campus
1636570686.4822044,17739,1636570686,481714725,map,493.6102294921875,-389.4332580566406,-0.4454403221607208,UT_Campus
1636570686.54259,17740,1636570686,542130232,map,493.6676940917969,-389.46099853515625,-0.4511329233646393,UT_Campus
1636570686.6026149,17741,1636570686,602411509,map,493.7099609375,-389.4844055175781,-0.451739639043808,UT_Campus
1636570686.6636715,17742,1636570686,663457155,map,493.7558898925781,-389.5112609863281,-0.4491616189479828,UT_Campus
1636570686.7239718,17743,1636570686,723780155,map,493.79168701171875,-389.52880859375,-0.45244622230529785,UT_Campus
1636570686.784284,17744,1636570686,784014940,map,493.8389892578125,-389.56231689453125,-0.4571545720100403,UT_Campus
1636570686.8446083,17745,1636570686,844319105,map,493.87945556640625,-389.589599609375,-0.4495968520641327,UT_Campus
1636570686.904725,17746,1636570686,904549837,map,493.92645263671875,-389.6209411621094,-0.4459579586982727,UT_Campus
1636570686.9666631,17747,1636570686,966398001,map,493.9759521484375,-389.65643310546875,-0.44678032398223877,UT_Campus
1636570687.0268059,17748,1636570687,26624203,map,494.0047912597656,-389.71429443359375,-0.45667514204978943,UT_Campus
1636570687.0671022,17749,1636570687,66908121,map,494.0586853027344,-389.74920654296875,-0.4595588147640228,UT_Campus
1636570687.1475804,17750,1636570687,147334576,map,494.1022033691406,-389.7703857421875,-0.45003241300582886,UT_Campus
1636570687.2279508,17751,1636570687,227761030,map,494.1571350097656,-389.79400634765625,-0.42356520891189575,UT_Campus
1636570687.2883162,17752,1636570687,287996769,map,494.2026062011719,-389.8081359863281,-0.40840983390808105,UT_Campus
1636570687.3288574,17753,1636570687,328564167,map,494.2511901855469,-389.81842041015625,-0.3954133689403534,UT_Campus
1636570687.4091446,17754,1636570687,408844948,map,494.3420104980469,-389.7774353027344,-0.3584607243537903,UT_Campus
1636570687.4693663,17755,1636570687,469131708,map,494.3841552734375,-389.786376953125,-0.32891345024108887,UT_Campus
1636570687.549758,17756,1636570687,549542665,map,494.4314880371094,-389.79864501953125,-0.30239179730415344,UT_Campus
1636570687.5910375,17757,1636570687,590676308,map,494.4883117675781,-389.8193359375,-0.2811092734336853,UT_Campus
1636570687.6314456,17758,1636570687,631229639,map,494.5435485839844,-389.8417663574219,-0.2645963430404663,UT_Campus
1636570687.6927726,17759,1636570687,691501856,map,494.6032409667969,-389.8687438964844,-0.24633771181106567,UT_Campus
1636570687.772083,17760,1636570687,771893263,map,494.62127685546875,-389.9208068847656,-0.23338061571121216,UT_Campus
1636570687.812339,17761,1636570687,812062740,map,494.6622314453125,-389.9443359375,-0.21750667691230774,UT_Campus
1636570687.872826,17762,1636570687,872448206,map,494.71075439453125,-389.9707336425781,-0.1902410089969635,UT_Campus
1636570687.9334328,17763,1636570687,933172464,map,494.7607421875,-390.0035095214844,-0.17147457599639893,UT_Campus
1636570688.0197449,17764,1636570688,13474226,map,494.8281555175781,-390.03973388671875,-0.15674136579036713,UT_Campus
1636570688.054131,17765,1636570688,53771973,map,494.8675231933594,-390.055419921875,-0.13478730618953705,UT_Campus
1636570688.1142354,17766,1636570688,114005327,map,494.9002685546875,-390.0693664550781,-0.1129605621099472,UT_Campus
1636570688.1745706,17767,1636570688,174312592,map,494.9421691894531,-390.085693359375,-0.09440042078495026,UT_Campus
1636570688.235313,17768,1636570688,235083342,map,494.9969787597656,-390.1065979003906,-0.07292141020298004,UT_Campus
1636570688.295497,17769,1636570688,295309544,map,495.02679443359375,-390.11236572265625,-0.055568113923072815,UT_Campus
1636570688.3559394,17770,1636570688,355676651,map,495.07171630859375,-390.12188720703125,-0.045643940567970276,UT_Campus
1636570688.4362004,17771,1636570688,436049223,map,495.11297607421875,-390.12982177734375,-0.03782625496387482,UT_Campus
1636570688.4966044,17772,1636570688,496327639,map,495.1517028808594,-390.1387939453125,-0.02582170069217682,UT_Campus
1636570688.536702,17773,1636570688,536559820,map,495.19580078125,-390.14849853515625,-0.007241919636726379,UT_Campus
1636570688.5974061,17774,1636570688,596818924,map,495.2234802246094,-390.1520080566406,0.00045968592166900635,UT_Campus
1636570688.6780992,17775,1636570688,677696228,map,495.2505187988281,-390.1531982421875,0.006809815764427185,UT_Campus
1636570688.719116,17776,1636570688,717865467,map,495.2752990722656,-390.1306457519531,0.00445973314344883,UT_Campus
1636570688.7784142,17777,1636570688,778224707,map,495.3104553222656,-390.1303405761719,0.027243489399552345,UT_Campus
1636570688.8386438,17778,1636570688,838470221,map,495.343994140625,-390.1247253417969,0.02827274240553379,UT_Campus
1636570688.8991225,17779,1636570688,898860216,map,495.3741455078125,-390.1225891113281,0.022615814581513405,UT_Campus
1636570688.9595313,17780,1636570688,959242344,map,495.3963928222656,-390.1211853027344,0.017528796568512917,UT_Campus
1636570689.0197418,17781,1636570689,19494295,map,495.4167785644531,-390.118408203125,0.017899924889206886,UT_Campus
1636570689.0802057,17782,1636570689,79854250,map,495.4340515136719,-390.118896484375,0.020983034744858742,UT_Campus
1636570689.1407204,17783,1636570689,140552282,map,495.4444885253906,-390.1165771484375,0.02120261825621128,UT_Campus
1636570689.2009861,17784,1636570689,200767517,map,495.4554443359375,-390.1007385253906,0.01347735058516264,UT_Campus
1636570689.2613535,17785,1636570689,261156797,map,495.4600524902344,-390.1009216308594,0.012893731705844402,UT_Campus
1636570689.3215628,17786,1636570689,321403742,map,495.4617919921875,-390.1019592285156,0.00978445541113615,UT_Campus
1636570689.3823793,17787,1636570689,381828547,map,495.4608154296875,-390.1044616699219,0.00912212859839201,UT_Campus
1636570689.4424934,17788,1636570689,442088127,map,495.4580078125,-390.1075744628906,0.008510942570865154,UT_Campus
1636570689.502662,17789,1636570689,502491713,map,495.4538269042969,-390.1114501953125,0.006013895384967327,UT_Campus
1636570689.5630448,17790,1636570689,562796354,map,495.4488830566406,-390.11553955078125,0.002448941580951214,UT_Campus
1636570689.623326,17791,1636570689,623036385,map,495.442626953125,-390.11962890625,-0.0018773721531033516,UT_Campus
1636570689.6842742,17792,1636570689,683910370,map,495.43731689453125,-390.122802734375,-0.006606404669582844,UT_Campus
1636570689.7847722,17793,1636570689,784394979,map,495.42242431640625,-390.1283264160156,-0.024577312171459198,UT_Campus
1636570689.824754,17794,1636570689,824560881,map,495.4183044433594,-390.1311950683594,-0.030178360641002655,UT_Campus
1636570689.8853395,17795,1636570689,884962320,map,495.4156188964844,-390.1325378417969,-0.031215451657772064,UT_Campus
1636570689.9454947,17796,1636570689,945203543,map,495.4166564941406,-390.13372802734375,-0.03123100847005844,UT_Campus
1636570690.0058243,17797,1636570690,5540848,map,495.4217529296875,-390.13543701171875,-0.03034626692533493,UT_Campus
1636570690.0660806,17798,1636570690,65900564,map,495.43072509765625,-390.1401672363281,-0.006041280925273895,UT_Campus
1636570690.126386,17799,1636570690,126165152,map,495.44256591796875,-390.14520263671875,0.02725929766893387,UT_Campus
1636570690.1693428,17800,1636570690,169075727,map,495.46356201171875,-390.1485290527344,0.05946189910173416,UT_Campus
1636570690.229532,17801,1636570690,229285717,map,495.4354248046875,-390.1392517089844,0.10075736045837402,UT_Campus
1636570690.2899382,17802,1636570690,289692402,map,495.4738464355469,-390.1454772949219,0.0914430022239685,UT_Campus
1636570690.3503716,17803,1636570690,350071430,map,495.507080078125,-390.15216064453125,0.10224807262420654,UT_Campus
1636570690.4106443,17804,1636570690,410328388,map,495.5431823730469,-390.1600646972656,0.1290760040283203,UT_Campus
1636570690.4914665,17805,1636570690,491219759,map,495.5820617675781,-390.1602783203125,0.15402895212173462,UT_Campus
1636570690.5316002,17806,1636570690,531382561,map,495.626953125,-390.13604736328125,0.18409384787082672,UT_Campus
1636570690.5922427,17807,1636570690,591793060,map,495.6737365722656,-390.1308288574219,0.18770547211170197,UT_Campus
1636570690.6725268,17808,1636570690,672239780,map,495.72137451171875,-390.1211242675781,0.2080438882112503,UT_Campus
1636570690.7326775,17809,1636570690,732472181,map,495.759521484375,-390.1149597167969,0.24384082853794098,UT_Campus
1636570690.7739494,17810,1636570690,773642063,map,495.8020935058594,-390.098876953125,0.25868356227874756,UT_Campus
1636570690.8348827,17811,1636570690,834611654,map,495.88885498046875,-390.01788330078125,0.2540934085845947,UT_Campus
1636570690.8952272,17812,1636570690,895001888,map,495.93212890625,-389.9921569824219,0.27843141555786133,UT_Campus
1636570690.955518,17813,1636570690,955309153,map,495.9722595214844,-389.9681396484375,0.2972378134727478,UT_Campus
1636570691.0158226,17814,1636570691,15538216,map,496.0057678222656,-389.94219970703125,0.3156445026397705,UT_Campus
1636570691.0762668,17815,1636570691,75942993,map,496.0366516113281,-389.92169189453125,0.3231673836708069,UT_Campus
1636570691.1366496,17816,1636570691,136211157,map,496.05950927734375,-389.89892578125,0.31596481800079346,UT_Campus
1636570691.1985521,17817,1636570691,197263479,map,496.0902404785156,-389.87615966796875,0.32097339630126953,UT_Campus
1636570691.2577598,17818,1636570691,257486105,map,496.1066589355469,-389.8714904785156,0.3406899571418762,UT_Campus
1636570691.3191624,17819,1636570691,317898750,map,496.1304931640625,-389.8533935546875,0.35492271184921265,UT_Campus
1636570691.3985612,17820,1636570691,398367643,map,496.1556396484375,-389.8291320800781,0.33550184965133667,UT_Campus
1636570691.4387019,17821,1636570691,438539982,map,496.193359375,-389.79437255859375,0.32140296697616577,UT_Campus
1636570691.4990916,17822,1636570691,498862267,map,496.22064208984375,-389.77349853515625,0.3377680778503418,UT_Campus
1636570691.5594673,17823,1636570691,559206247,map,496.2493896484375,-389.7477722167969,0.338054895401001,UT_Campus
1636570691.6198304,17824,1636570691,619491577,map,496.27764892578125,-389.7245178222656,0.3308202028274536,UT_Campus
1636570691.680971,17825,1636570691,680660486,map,496.2964172363281,-389.7043762207031,0.32508236169815063,UT_Campus
1636570691.7415514,17826,1636570691,741227150,map,496.293701171875,-389.7008972167969,0.24537745118141174,UT_Campus
1636570691.7818248,17827,1636570691,781576633,map,496.32598876953125,-389.68060302734375,0.25315746665000916,UT_Campus
1636570691.8622642,17828,1636570691,861878633,map,496.3547058105469,-389.6607666015625,0.26352933049201965,UT_Campus
1636570691.9224637,17829,1636570691,922257423,map,496.3878173828125,-389.64654541015625,0.2680192291736603,UT_Campus
1636570691.9829895,17830,1636570691,982569695,map,496.4307861328125,-389.635498046875,0.2582695186138153,UT_Campus
1636570692.0430202,17831,1636570692,42825222,map,496.46728515625,-389.62847900390625,0.2578621208667755,UT_Campus
1636570692.1037328,17832,1636570692,103481293,map,496.51171875,-389.6222229003906,0.2544997036457062,UT_Campus
1636570692.163855,17833,1636570692,163710833,map,496.6564025878906,-389.6191711425781,0.23674090206623077,UT_Campus
1636570692.224227,17834,1636570692,224080801,map,496.6934814453125,-389.61834716796875,0.23661519587039948,UT_Campus
1636570692.284683,17835,1636570692,284451008,map,496.7291259765625,-389.6196594238281,0.24503262341022491,UT_Campus
1636570692.3449876,17836,1636570692,344693184,map,496.7799072265625,-389.6229553222656,0.24597002565860748,UT_Campus
1636570692.4053159,17837,1636570692,405065536,map,496.81500244140625,-389.6226501464844,0.248601034283638,UT_Campus
1636570692.4658382,17838,1636570692,465316057,map,496.8516845703125,-389.6214904785156,0.24401356279850006,UT_Campus
1636570692.5277562,17839,1636570692,526017427,map,496.89410400390625,-389.6195068359375,0.23658008873462677,UT_Campus
1636570692.586732,17840,1636570692,586391926,map,496.9490051269531,-389.5882873535156,0.21478024125099182,UT_Campus
1636570692.6470985,17841,1636570692,646615982,map,496.9983215332031,-389.57904052734375,0.21015861630439758,UT_Campus
1636570692.6872542,17842,1636570692,686900139,map,497.0362243652344,-389.573486328125,0.21125009655952454,UT_Campus
1636570692.7674549,17843,1636570692,767215252,map,497.06817626953125,-389.5703430175781,0.21386191248893738,UT_Campus
1636570692.8277898,17844,1636570692,827529192,map,497.09521484375,-389.5645751953125,0.20785406231880188,UT_Campus
1636570692.8679268,17845,1636570692,867764473,map,497.1212158203125,-389.5538635253906,0.21326813101768494,UT_Campus
1636570692.9483855,17846,1636570692,948073149,map,497.1427001953125,-389.5419921875,0.208467036485672,UT_Campus
1636570693.0090172,17847,1636570693,8826494,map,497.1661682128906,-389.52850341796875,0.2049863636493683,UT_Campus
1636570693.049279,17848,1636570693,49000502,map,497.1631774902344,-389.517822265625,0.22129015624523163,UT_Campus
1636570693.1295712,17849,1636570693,129374743,map,497.1922607421875,-389.509765625,0.22671572864055634,UT_Campus
1636570693.169753,17850,1636570693,169548750,map,497.2382507324219,-389.4964599609375,0.22851847112178802,UT_Campus
1636570693.230189,17851,1636570693,229898453,map,497.2713317871094,-389.4852294921875,0.2180158942937851,UT_Campus
1636570693.290535,17852,1636570693,290249109,map,497.3062744140625,-389.47271728515625,0.21193717420101166,UT_Campus
1636570693.3709714,17853,1636570693,370582342,map,497.3394470214844,-389.46954345703125,0.21208427846431732,UT_Campus
1636570693.4311361,17854,1636570693,430897236,map,497.3804016113281,-389.4600830078125,0.2144477814435959,UT_Campus
1636570693.491981,17855,1636570693,491721869,map,497.4161376953125,-389.45257568359375,0.2200808972120285,UT_Campus
1636570693.5722272,17856,1636570693,572000980,map,497.470947265625,-389.42120361328125,0.2261352837085724,UT_Campus
1636570693.6126165,17857,1636570693,612311602,map,497.5042724609375,-389.41229248046875,0.2359815537929535,UT_Campus
1636570693.6727736,17858,1636570693,672558069,map,497.5403137207031,-389.40118408203125,0.2199009358882904,UT_Campus
1636570693.7331297,17859,1636570693,732887983,map,497.57525634765625,-389.3907470703125,0.21045127511024475,UT_Campus
1636570693.7934372,17860,1636570693,793219328,map,497.6208801269531,-389.3736267089844,0.2076939046382904,UT_Campus
1636570693.8738756,17861,1636570693,873545885,map,497.6675109863281,-389.35693359375,0.21817466616630554,UT_Campus
1636570693.9347968,17862,1636570693,934570313,map,497.71246337890625,-389.34271240234375,0.21619680523872375,UT_Campus
1636570693.975116,17863,1636570693,974756002,map,497.74945068359375,-389.30487060546875,0.21420186758041382,UT_Campus
1636570694.0353997,17864,1636570694,35142183,map,497.7876281738281,-389.2960205078125,0.220514714717865,UT_Campus
1636570694.095712,17865,1636570694,95435381,map,497.8244934082031,-389.2953186035156,0.22238677740097046,UT_Campus
1636570694.1558318,17866,1636570694,155662298,map,497.8587951660156,-389.2927551269531,0.216569185256958,UT_Campus
1636570694.216346,17867,1636570694,216004372,map,497.88909912109375,-389.2898254394531,0.21640217304229736,UT_Campus
1636570694.2767363,17868,1636570694,276244640,map,497.9172668457031,-389.29144287109375,0.223513662815094,UT_Campus
1636570694.341474,17869,1636570694,341147900,map,497.9562072753906,-389.28631591796875,0.23542386293411255,UT_Campus
1636570694.402018,17870,1636570694,401750803,map,498.0903015136719,-389.2867126464844,0.2129662036895752,UT_Campus
1636570694.4824297,17871,1636570694,482066870,map,498.1314392089844,-389.283935546875,0.1789255142211914,UT_Campus
1636570694.5427277,17872,1636570694,542505264,map,498.18243408203125,-389.2825012207031,0.17245882749557495,UT_Campus
1636570694.602996,17873,1636570694,602793932,map,498.22198486328125,-389.27630615234375,0.19061356782913208,UT_Campus
1636570694.6631708,17874,1636570694,663021326,map,498.2669982910156,-389.2718505859375,0.2078353762626648,UT_Campus
1636570694.7241657,17875,1636570694,723921776,map,498.3032531738281,-389.2626647949219,0.20581454038619995,UT_Campus
1636570694.7845159,17876,1636570694,784137011,map,498.48260498046875,-389.2490539550781,0.20821532607078552,UT_Campus
1636570694.844741,17877,1636570694,844506502,map,498.5198059082031,-389.2376403808594,0.2214299738407135,UT_Campus
1636570694.9049337,17878,1636570694,904796362,map,498.5647277832031,-389.2305603027344,0.21398314833641052,UT_Campus
1636570694.965197,17879,1636570694,965012550,map,498.6132507324219,-389.2222595214844,0.2005302608013153,UT_Campus
1636570695.0057027,17880,1636570695,5395412,map,498.66253662109375,-389.2182312011719,0.18252411484718323,UT_Campus
1636570695.0870035,17881,1636570695,85751295,map,498.7160339355469,-389.21807861328125,0.15797170996665955,UT_Campus
1636570695.147939,17882,1636570695,147575617,map,498.7653503417969,-389.2201843261719,0.15159252285957336,UT_Campus
1636570695.2082846,17883,1636570695,208003044,map,498.7060546875,-389.1834716796875,0.20880192518234253,UT_Campus
1636570695.2687073,17884,1636570695,268252134,map,498.7677001953125,-389.2015075683594,0.2438875436782837,UT_Campus
1636570695.3489223,17885,1636570695,348670483,map,498.8185729980469,-389.2178955078125,0.2457026243209839,UT_Campus
1636570695.4093733,17886,1636570695,408992290,map,498.859619140625,-389.22998046875,0.24224567413330078,UT_Campus
1636570695.449577,17887,1636570695,449152470,map,498.89520263671875,-389.2409973144531,0.23642337322235107,UT_Campus
1636570695.530225,17888,1636570695,530027628,map,498.92083740234375,-389.2469787597656,0.23899447917938232,UT_Campus
1636570695.5910192,17889,1636570695,590301275,map,498.8122253417969,-389.166748046875,0.32430538535118103,UT_Campus
1636570695.630823,17890,1636570695,630623817,map,498.8279113769531,-389.1712341308594,0.32409921288490295,UT_Campus
1636570695.7112284,17891,1636570695,711034536,map,498.83636474609375,-389.1708068847656,0.3189237415790558,UT_Campus
1636570695.7518215,17892,1636570695,751202345,map,498.84552001953125,-389.1711120605469,0.31813010573387146,UT_Campus
1636570695.8118384,17893,1636570695,811594725,map,498.85321044921875,-389.1734924316406,0.320433109998703,UT_Campus
1636570695.8720448,17894,1636570695,871823549,map,498.8594970703125,-389.176025390625,0.32199278473854065,UT_Campus
1636570695.9525783,17895,1636570695,952292919,map,498.8636779785156,-389.18023681640625,0.3218095004558563,UT_Campus
1636570695.993183,17896,1636570695,992994547,map,498.8691101074219,-389.1849670410156,0.3173469603061676,UT_Campus
1636570696.0545404,17897,1636570696,54273844,map,498.711181640625,-389.1993103027344,0.3430810570716858,UT_Campus
1636570696.1150367,17898,1636570696,114608288,map,498.71673583984375,-389.19989013671875,0.3597239851951599,UT_Campus
1636570696.1751134,17899,1636570696,174856663,map,498.72357177734375,-389.19573974609375,0.3782801628112793,UT_Campus
1636570696.2555048,17900,1636570696,255263090,map,498.73101806640625,-389.1908264160156,0.38702863454818726,UT_Campus
1636570696.2956398,17901,1636570696,295421362,map,498.7450256347656,-389.18463134765625,0.3964962363243103,UT_Campus
1636570696.3560584,17902,1636570696,355731487,map,498.77056884765625,-389.1752624511719,0.4175648093223572,UT_Campus
1636570696.4169946,17903,1636570696,416710854,map,498.796875,-389.16619873046875,0.4458169937133789,UT_Campus
1636570696.4774313,17904,1636570696,477084398,map,498.7972106933594,-389.23040771484375,0.4750157296657562,UT_Campus
1636570696.5376234,17905,1636570696,537370682,map,498.8272399902344,-389.215576171875,0.5192599296569824,UT_Campus
1636570696.6187463,17906,1636570696,618340969,map,498.8597717285156,-389.19671630859375,0.5685725808143616,UT_Campus
1636570696.6587808,17907,1636570696,658517361,map,498.8363037109375,-389.12530517578125,0.670496940612793,UT_Campus
1636570696.719829,17908,1636570696,719524145,map,498.86712646484375,-389.1000061035156,0.7099395990371704,UT_Campus
1636570696.7800806,17909,1636570696,779762983,map,498.8280334472656,-389.0346374511719,0.8010658621788025,UT_Campus
1636570696.840734,17910,1636570696,840518713,map,498.85479736328125,-388.99761962890625,0.8500633835792542,UT_Campus
1636570696.9211729,17911,1636570696,920907021,map,498.85113525390625,-388.9864196777344,0.8948046565055847,UT_Campus
1636570696.9614244,17912,1636570696,961084604,map,498.8800048828125,-388.9334716796875,0.940458357334137,UT_Campus
1636570697.0220945,17913,1636570697,21813631,map,498.9072570800781,-388.88299560546875,0.9817575812339783,UT_Campus
1636570697.082451,17914,1636570697,82120895,map,498.9264831542969,-388.88348388671875,1.0163459777832031,UT_Campus
1636570697.1426568,17915,1636570697,142444372,map,498.94305419921875,-388.8524169921875,1.0393638610839844,UT_Campus
1636570697.203256,17916,1636570697,202679396,map,498.9610290527344,-388.814697265625,1.065990924835205,UT_Campus
1636570697.264577,17917,1636570697,263561726,map,498.9759826660156,-388.7767333984375,1.0887196063995361,UT_Campus
1636570697.324021,17918,1636570697,323863268,map,498.9385986328125,-388.81451416015625,1.0734503269195557,UT_Campus
1636570697.3844845,17919,1636570697,384139776,map,498.9526062011719,-388.7819519042969,1.08953058719635,UT_Campus
1636570697.444705,17920,1636570697,444451571,map,498.9663391113281,-388.7511291503906,1.1076616048812866,UT_Campus
1636570697.5048933,17921,1636570697,504683256,map,498.98779296875,-388.712158203125,1.1340476274490356,UT_Campus
1636570697.567497,17922,1636570697,567204237,map,499.0251770019531,-388.65045166015625,1.182104229927063,UT_Campus
1636570697.6276867,17923,1636570697,627538681,map,499.0588684082031,-388.6132507324219,1.2124511003494263,UT_Campus
1636570697.6683605,17924,1636570697,668020010,map,499.0798034667969,-388.56268310546875,1.2603747844696045,UT_Campus
1636570697.7492294,17925,1636570697,748933315,map,499.0985412597656,-388.5141906738281,1.3091061115264893,UT_Campus
1636570697.8095691,17926,1636570697,809149027,map,499.07708740234375,-388.46795654296875,1.3621442317962646,UT_Campus
1636570697.870458,17927,1636570697,870051146,map,499.0963134765625,-388.3948974609375,1.4033700227737427,UT_Campus
1636570697.910589,17928,1636570697,910266161,map,499.1042785644531,-388.4148864746094,1.4127990007400513,UT_Campus
1636570697.9708207,17929,1636570697,970611811,map,499.10595703125,-388.3532409667969,1.4647552967071533,UT_Campus
1636570698.051599,17930,1636570698,51378012,map,499.10504150390625,-388.2978210449219,1.5067139863967896,UT_Campus
1636570698.0917583,17931,1636570698,91576338,map,499.1344299316406,-388.2694396972656,1.5229381322860718,UT_Campus
